{"Contents":{"ResponseTimestamp":"2020-03-08T14:29:04-07:00","dataObjects":{"id":"SA","ScheduledStopPoint":[{"id":"7109","Extensions":{"LocationType":"0","PlatformCode":null,"ParentStation":null},"Name":"Cotati Station","Location":{"Longitude":"-122.6912","Latitude":"38.33135"},"Url":null,"StopType":"other"},{"id":"7101","Extensions":{"LocationType":"0","PlatformCode":null,"ParentStation":null},"Name":"Larkspur Station","Location":{"Longitude":"-122.5126584682","Latitude":"37.9475940575"},"Url":null,"StopType":"other"},{"id":"7103","Extensions":{"LocationType":"0","PlatformCode":null,"ParentStation":null},"Name":"Marin Civic Center Station","Location":{"Longitude":"-122.5373","Latitude":"38.00156"},"Url":null,"StopType":"other"},{"id":"7105","Extensions":{"LocationType":"0","PlatformCode":null,"ParentStation":null},"Name":"Novato Downtown","Location":{"Longitude":"-122.5644","Latitude":"38.10595"},"Url":null,"StopType":"other"},{"id":"7104","Extensions":{"LocationType":"0","PlatformCode":null,"ParentStation":null},"Name":"Novato Hamilton Station","Location":{"Longitude":"-122.5239","Latitude":"38.05632"},"Url":null,"StopType":"other"},{"id":"7106","Extensions":{"LocationType":"0","PlatformCode":null,"ParentStation":null},"Name":"Novato San Marin Station","Location":{"Longitude":"-122.5661","Latitude":"38.12063"},"Url":null,"StopType":"other"},{"id":"7107","Extensions":{"LocationType":"0","PlatformCode":null,"ParentStation":null},"Name":"Petaluma Downtown","Location":{"Longitude":"-122.6344","Latitude":"38.23708"},"Url":null,"StopType":"other"},{"id":"7110","Extensions":{"LocationType":"0","PlatformCode":null,"ParentStation":null},"Name":"Rohnert Park","Location":{"Longitude":"-122.7012","Latitude":"38.34748"},"Url":null,"StopType":"other"},{"id":"7102","Extensions":{"LocationType":"0","PlatformCode":null,"ParentStation":null},"Name":"San Rafael Station","Location":{"Longitude":"-122.5228","Latitude":"37.9719"},"Url":null,"StopType":"other"},{"id":"7111","Extensions":{"LocationType":"0","PlatformCode":null,"ParentStation":null},"Name":"Santa Rosa Downtown Station","Location":{"Longitude":"-122.7217","Latitude":"38.43752"},"Url":null,"StopType":"other"},{"id":"7112","Extensions":{"LocationType":"0","PlatformCode":null,"ParentStation":null},"Name":"Santa Rosa North Station","Location":{"Longitude":"-122.7367","Latitude":"38.4556"},"Url":null,"StopType":"other"},{"id":"7113","Extensions":{"LocationType":"0","PlatformCode":null,"ParentStation":null},"Name":"Sonoma County Airport Station","Location":{"Longitude":"-122.7839","Latitude":"38.50956"},"Url":null,"StopType":"other"}]}}}