{"Contents":{"ResponseTimestamp":"2020-03-08T14:29:17-07:00","dataObjects":{"id":"MA","ScheduledStopPoint":[{"id":"40333","Extensions":{"LocationType":null,"PlatformCode":null,"ParentStation":null},"Name":"1111 Sir Francis Drake Blvd","Location":{"Longitude":"-122.55291","Latitude":"37.959709"},"Url":null,"StopType":"onstreetBus"},{"id":"40612","Extensions":{"LocationType":null,"PlatformCode":null,"ParentStation":null},"Name":"1137 Idylberry Rd","Location":{"Longitude":"-122.575996","Latitude":"38.030369"},"Url":null,"StopType":"onstreetBus"},{"id":"40642","Extensions":{"LocationType":null,"PlatformCode":null,"ParentStation":null},"Name":"1204  Idylberry Rd","Location":{"Longitude":"-122.578346","Latitude":"38.031563"},"Url":null,"StopType":"onstreetBus"},{"id":"40615","Extensions":{"LocationType":null,"PlatformCode":null,"ParentStation":null},"Name":"120  Mount Lassen Ct","Location":{"Longitude":"-122.568909","Latitude":"38.028095"},"Url":null,"StopType":"onstreetBus"},{"id":"41357","Extensions":{"LocationType":null,"PlatformCode":null,"ParentStation":null},"Name":"1220 S Eliseo Dr","Location":{"Longitude":"-122.535553","Latitude":"37.943935"},"Url":null,"StopType":"onstreetBus"},{"id":"41094","Extensions":{"LocationType":null,"PlatformCode":null,"ParentStation":null},"Name":"1525 Francisco Blvd E","Location":{"Longitude":"-122.497055","Latitude":"37.952526"},"Url":null,"StopType":"onstreetBus"},{"id":"40414","Extensions":{"LocationType":null,"PlatformCode":null,"ParentStation":null},"Name":"2nd St & Grand Ave","Location":{"Longitude":"-122.519966","Latitude":"37.970295"},"Url":null,"StopType":"onstreetBus"},{"id":"40619","Extensions":{"LocationType":null,"PlatformCode":null,"ParentStation":null},"Name":"3194  Lucas Valley Rd","Location":{"Longitude":"-122.573914","Latitude":"38.02684"},"Url":null,"StopType":"onstreetBus"},{"id":"41320","Extensions":{"LocationType":null,"PlatformCode":null,"ParentStation":null},"Name":"33 San Clemente Dr","Location":{"Longitude":"-122.510498","Latitude":"37.922466"},"Url":null,"StopType":"onstreetBus"},{"id":"40429","Extensions":{"LocationType":null,"PlatformCode":null,"ParentStation":null},"Name":"3rd St & Grand Ave","Location":{"Longitude":"-122.519012","Latitude":"37.971031"},"Url":null,"StopType":"onstreetBus"},{"id":"40781","Extensions":{"LocationType":null,"PlatformCode":null,"ParentStation":null},"Name":"4810 Shoreline Hwy","Location":{"Longitude":"-122.639961","Latitude":"37.898464"},"Url":null,"StopType":"onstreetBus"},{"id":"40782","Extensions":{"LocationType":null,"PlatformCode":null,"ParentStation":null},"Name":"4813 Shoreline Hwy","Location":{"Longitude":"-122.639671","Latitude":"37.898552"},"Url":null,"StopType":"onstreetBus"},{"id":"40427","Extensions":{"LocationType":null,"PlatformCode":null,"ParentStation":null},"Name":"4th St & Court St","Location":{"Longitude":"-122.527283","Latitude":"37.973133"},"Url":null,"StopType":"onstreetBus"},{"id":"40428","Extensions":{"LocationType":null,"PlatformCode":null,"ParentStation":null},"Name":"4th St & Court St","Location":{"Longitude":"-122.526878","Latitude":"37.972992"},"Url":null,"StopType":"onstreetBus"},{"id":"40425","Extensions":{"LocationType":null,"PlatformCode":null,"ParentStation":null},"Name":"4th St & C St","Location":{"Longitude":"-122.530945","Latitude":"37.973499"},"Url":null,"StopType":"onstreetBus"},{"id":"40426","Extensions":{"LocationType":null,"PlatformCode":null,"ParentStation":null},"Name":"4th St & C St","Location":{"Longitude":"-122.530548","Latitude":"37.973354"},"Url":null,"StopType":"onstreetBus"},{"id":"40424","Extensions":{"LocationType":null,"PlatformCode":null,"ParentStation":null},"Name":"4th St & E St","Location":{"Longitude":"-122.533447","Latitude":"37.973717"},"Url":null,"StopType":"onstreetBus"},{"id":"40423","Extensions":{"LocationType":null,"PlatformCode":null,"ParentStation":null},"Name":"4th St & E St","Location":{"Longitude":"-122.533058","Latitude":"37.973564"},"Url":null,"StopType":"onstreetBus"},{"id":"40419","Extensions":{"LocationType":null,"PlatformCode":null,"ParentStation":null},"Name":"4th St & Greenfield Ave","Location":{"Longitude":"-122.544228","Latitude":"37.975113"},"Url":null,"StopType":"onstreetBus"},{"id":"40420","Extensions":{"LocationType":null,"PlatformCode":null,"ParentStation":null},"Name":"4th St & Greenfield Ave","Location":{"Longitude":"-122.544212","Latitude":"37.974857"},"Url":null,"StopType":"onstreetBus"},{"id":"40421","Extensions":{"LocationType":null,"PlatformCode":null,"ParentStation":null},"Name":"4th St & Ida St","Location":{"Longitude":"-122.537987","Latitude":"37.974159"},"Url":null,"StopType":"onstreetBus"},{"id":"40422","Extensions":{"LocationType":null,"PlatformCode":null,"ParentStation":null},"Name":"4th St & Ida St","Location":{"Longitude":"-122.538231","Latitude":"37.974075"},"Url":null,"StopType":"onstreetBus"},{"id":"40416","Extensions":{"LocationType":null,"PlatformCode":null,"ParentStation":null},"Name":"4th St & Ross Valley Dr","Location":{"Longitude":"-122.550194","Latitude":"37.976124"},"Url":null,"StopType":"onstreetBus"},{"id":"40418","Extensions":{"LocationType":null,"PlatformCode":null,"ParentStation":null},"Name":"4th St & Santa Margarita Ave","Location":{"Longitude":"-122.549873","Latitude":"37.976334"},"Url":null,"StopType":"onstreetBus"},{"id":"41334","Extensions":{"LocationType":null,"PlatformCode":null,"ParentStation":null},"Name":"600 Larkspur Landing Circle","Location":{"Longitude":"-122.511452","Latitude":"37.947529"},"Url":null,"StopType":"onstreetBus"},{"id":"41325","Extensions":{"LocationType":null,"PlatformCode":null,"ParentStation":null},"Name":"630 Nevada St Bayside Elementary School","Location":{"Longitude":"-122.501068","Latitude":"37.863373"},"Url":null,"StopType":"onstreetBus"},{"id":"41355","Extensions":{"LocationType":null,"PlatformCode":null,"ParentStation":null},"Name":"630 S Eliseo Dr","Location":{"Longitude":"-122.53019","Latitude":"37.945118"},"Url":null,"StopType":"onstreetBus"},{"id":"40824","Extensions":{"LocationType":null,"PlatformCode":null,"ParentStation":null},"Name":"6402 Shoreline Hwy","Location":{"Longitude":"-122.682579","Latitude":"37.929958"},"Url":null,"StopType":"onstreetBus"},{"id":"40818","Extensions":{"LocationType":null,"PlatformCode":null,"ParentStation":null},"Name":"8185 Sir Francis Drake Blvd","Location":{"Longitude":"-122.729813","Latitude":"38.019611"},"Url":null,"StopType":"onstreetBus"},{"id":"40788","Extensions":{"LocationType":null,"PlatformCode":null,"ParentStation":null},"Name":"895  Panoramic Hwy Bootjack Parking Lot","Location":{"Longitude":"-122.60173","Latitude":"37.909458"},"Url":null,"StopType":"onstreetBus"},{"id":"40787","Extensions":{"LocationType":null,"PlatformCode":null,"ParentStation":null},"Name":"897 Panoramic Hwy Bootjack Parking Lot","Location":{"Longitude":"-122.601204","Latitude":"37.909222"},"Url":null,"StopType":"onstreetBus"},{"id":"40611","Extensions":{"LocationType":null,"PlatformCode":null,"ParentStation":null},"Name":"977 Idylberry Rd","Location":{"Longitude":"-122.572502","Latitude":"38.028992"},"Url":null,"StopType":"onstreetBus"},{"id":"40584","Extensions":{"LocationType":null,"PlatformCode":null,"ParentStation":null},"Name":"Adrian Way & La Brea Way","Location":{"Longitude":"-122.514198","Latitude":"38.013306"},"Url":null,"StopType":"onstreetBus"},{"id":"40588","Extensions":{"LocationType":null,"PlatformCode":null,"ParentStation":null},"Name":"Adrian Way & Rosal Way","Location":{"Longitude":"-122.515984","Latitude":"38.012482"},"Url":null,"StopType":"onstreetBus"},{"id":"41021","Extensions":{"LocationType":null,"PlatformCode":null,"ParentStation":null},"Name":"Adrian Way & Vendola Dr","Location":{"Longitude":"-122.510361","Latitude":"38.013447"},"Url":null,"StopType":"onstreetBus"},{"id":"42012","Extensions":{"LocationType":null,"PlatformCode":null,"ParentStation":null},"Name":"Alameda Del Prado & Alameda De La Loma","Location":{"Longitude":"-122.539505","Latitude":"38.064953"},"Url":null,"StopType":"onstreetBus"},{"id":"40766","Extensions":{"LocationType":null,"PlatformCode":null,"ParentStation":null},"Name":"Alameda Del Prado At Nave Dr","Location":{"Longitude":"-122.533318","Latitude":"38.048328"},"Url":null,"StopType":"onstreetBus"},{"id":"40748","Extensions":{"LocationType":null,"PlatformCode":null,"ParentStation":null},"Name":"Alameda Del Prado & Calle Arboleda","Location":{"Longitude":"-122.535774","Latitude":"38.062904"},"Url":null,"StopType":"onstreetBus"},{"id":"40749","Extensions":{"LocationType":null,"PlatformCode":null,"ParentStation":null},"Name":"Alameda Del Prado & Calle Arboleda","Location":{"Longitude":"-122.535622","Latitude":"38.062885"},"Url":null,"StopType":"onstreetBus"},{"id":"40765","Extensions":{"LocationType":null,"PlatformCode":null,"ParentStation":null},"Name":"Alameda del Prado & Hwy 101 SB","Location":{"Longitude":"-122.533127","Latitude":"38.049271"},"Url":null,"StopType":"onstreetBus"},{"id":"40763","Extensions":{"LocationType":null,"PlatformCode":null,"ParentStation":null},"Name":"Alameda Del Prado & Los Robles Rd","Location":{"Longitude":"-122.532234","Latitude":"38.05957"},"Url":null,"StopType":"onstreetBus"},{"id":"40764","Extensions":{"LocationType":null,"PlatformCode":null,"ParentStation":null},"Name":"Alameda Del Prado & Los Robles Rd","Location":{"Longitude":"-122.53212","Latitude":"38.059498"},"Url":null,"StopType":"onstreetBus"},{"id":"40761","Extensions":{"LocationType":null,"PlatformCode":null,"ParentStation":null},"Name":"Alameda Del Prado & Posada Del Sol","Location":{"Longitude":"-122.533684","Latitude":"38.061008"},"Url":null,"StopType":"onstreetBus"},{"id":"40762","Extensions":{"LocationType":null,"PlatformCode":null,"ParentStation":null},"Name":"Alameda Del Prado & Posada Del Sol","Location":{"Longitude":"-122.533554","Latitude":"38.061058"},"Url":null,"StopType":"onstreetBus"},{"id":"40152","Extensions":{"LocationType":null,"PlatformCode":null,"ParentStation":null},"Name":"Almonte Blvd & Miller Ave","Location":{"Longitude":"-122.52475","Latitude":"37.887569"},"Url":null,"StopType":"onstreetBus"},{"id":"40151","Extensions":{"LocationType":null,"PlatformCode":null,"ParentStation":null},"Name":"Almonte Blvd & Miller Ave","Location":{"Longitude":"-122.524834","Latitude":"37.887188"},"Url":null,"StopType":"onstreetBus"},{"id":"40154","Extensions":{"LocationType":null,"PlatformCode":null,"ParentStation":null},"Name":"Almonte Blvd & Rosemont Ave","Location":{"Longitude":"-122.52462","Latitude":"37.883823"},"Url":null,"StopType":"onstreetBus"},{"id":"40153","Extensions":{"LocationType":null,"PlatformCode":null,"ParentStation":null},"Name":"Almonte Blvd & Rosemont Ave","Location":{"Longitude":"-122.524841","Latitude":"37.883987"},"Url":null,"StopType":"onstreetBus"},{"id":"40265","Extensions":{"LocationType":null,"PlatformCode":null,"ParentStation":null},"Name":"Antilles Way & Martinique Av","Location":{"Longitude":"-122.478134","Latitude":"37.912491"},"Url":null,"StopType":"onstreetBus"},{"id":"40823","Extensions":{"LocationType":null,"PlatformCode":null,"ParentStation":null},"Name":"Audubon Canyon Ranch","Location":{"Longitude":"-122.682999","Latitude":"37.930042"},"Url":null,"StopType":"onstreetBus"},{"id":"40103","Extensions":{"LocationType":null,"PlatformCode":null,"ParentStation":null},"Name":"Bay St & Bridgeway","Location":{"Longitude":"-122.480469","Latitude":"37.857136"},"Url":null,"StopType":"onstreetBus"},{"id":"40198","Extensions":{"LocationType":null,"PlatformCode":null,"ParentStation":null},"Name":"Beach Rd & Juanita Ln","Location":{"Longitude":"-122.459373","Latitude":"37.87505"},"Url":null,"StopType":"onstreetBus"},{"id":"40197","Extensions":{"LocationType":null,"PlatformCode":null,"ParentStation":null},"Name":"Beach Rd & San Rafael Av","Location":{"Longitude":"-122.463295","Latitude":"37.87307"},"Url":null,"StopType":"onstreetBus"},{"id":"40803","Extensions":{"LocationType":null,"PlatformCode":null,"ParentStation":null},"Name":"Bear Valley Visitor Center","Location":{"Longitude":"-122.7999982","Latitude":"38.04103191"},"Url":null,"StopType":"onstreetBus"},{"id":"40467","Extensions":{"LocationType":null,"PlatformCode":null,"ParentStation":null},"Name":"Bellam Blvd & Francisco Blvd E","Location":{"Longitude":"-122.50441","Latitude":"37.960659"},"Url":null,"StopType":"onstreetBus"},{"id":"40466","Extensions":{"LocationType":null,"PlatformCode":null,"ParentStation":null},"Name":"Bellam Blvd & Lisbon St","Location":{"Longitude":"-122.503555","Latitude":"37.961201"},"Url":null,"StopType":"onstreetBus"},{"id":"42130","Extensions":{"LocationType":null,"PlatformCode":null,"ParentStation":null},"Name":"Belvedere Dr & Redwood Hwy Frontage Rd","Location":{"Longitude":"-122.514313","Latitude":"37.897804"},"Url":null,"StopType":"onstreetBus"},{"id":"41071","Extensions":{"LocationType":null,"PlatformCode":null,"ParentStation":null},"Name":"Bon Air Rd & Magnolia Ave","Location":{"Longitude":"-122.53981","Latitude":"37.943371"},"Url":null,"StopType":"onstreetBus"},{"id":"41073","Extensions":{"LocationType":null,"PlatformCode":null,"ParentStation":null},"Name":"Bon Air Rd & MHMC Emergency Entrance Rd","Location":{"Longitude":"-122.535622","Latitude":"37.948875"},"Url":null,"StopType":"onstreetBus"},{"id":"41351","Extensions":{"LocationType":null,"PlatformCode":null,"ParentStation":null},"Name":"Bon Air Rd & Schultz Memorial Dr","Location":{"Longitude":"-122.536263","Latitude":"37.948982"},"Url":null,"StopType":"onstreetBus"},{"id":"40100","Extensions":{"LocationType":null,"PlatformCode":null,"ParentStation":null},"Name":"Bridgeway & Caledonia Av","Location":{"Longitude":"-122.483299","Latitude":"37.858608"},"Url":null,"StopType":"onstreetBus"},{"id":"41042","Extensions":{"LocationType":null,"PlatformCode":null,"ParentStation":null},"Name":"Bridgeway & Coloma St","Location":{"Longitude":"-122.502327","Latitude":"37.868382"},"Url":null,"StopType":"onstreetBus"},{"id":"40094","Extensions":{"LocationType":null,"PlatformCode":null,"ParentStation":null},"Name":"Bridgeway & Easterby St","Location":{"Longitude":"-122.493881","Latitude":"37.861786"},"Url":null,"StopType":"onstreetBus"},{"id":"40095","Extensions":{"LocationType":null,"PlatformCode":null,"ParentStation":null},"Name":"Bridgeway & Easterby St","Location":{"Longitude":"-122.493622","Latitude":"37.861969"},"Url":null,"StopType":"onstreetBus"},{"id":"40090","Extensions":{"LocationType":null,"PlatformCode":null,"ParentStation":null},"Name":"Bridgeway & Ebbtide St","Location":{"Longitude":"-122.5037","Latitude":"37.87022"},"Url":null,"StopType":"onstreetBus"},{"id":"40091","Extensions":{"LocationType":null,"PlatformCode":null,"ParentStation":null},"Name":"Bridgeway & Gate 5 Rd","Location":{"Longitude":"-122.503876","Latitude":"37.871155"},"Url":null,"StopType":"onstreetBus"},{"id":"40097","Extensions":{"LocationType":null,"PlatformCode":null,"ParentStation":null},"Name":"Bridgeway & Napa St","Location":{"Longitude":"-122.489929","Latitude":"37.861557"},"Url":null,"StopType":"onstreetBus"},{"id":"40096","Extensions":{"LocationType":null,"PlatformCode":null,"ParentStation":null},"Name":"Bridgeway & Napa St","Location":{"Longitude":"-122.489319","Latitude":"37.861065"},"Url":null,"StopType":"onstreetBus"},{"id":"40092","Extensions":{"LocationType":null,"PlatformCode":null,"ParentStation":null},"Name":"Bridgeway & Nevada St","Location":{"Longitude":"-122.499229","Latitude":"37.865463"},"Url":null,"StopType":"onstreetBus"},{"id":"40093","Extensions":{"LocationType":null,"PlatformCode":null,"ParentStation":null},"Name":"Bridgeway & Nevada St","Location":{"Longitude":"-122.499367","Latitude":"37.86528"},"Url":null,"StopType":"onstreetBus"},{"id":"40098","Extensions":{"LocationType":null,"PlatformCode":null,"ParentStation":null},"Name":"Bridgeway & Pine St","Location":{"Longitude":"-122.485275","Latitude":"37.859268"},"Url":null,"StopType":"onstreetBus"},{"id":"40099","Extensions":{"LocationType":null,"PlatformCode":null,"ParentStation":null},"Name":"Bridgeway & Turney St","Location":{"Longitude":"-122.485893","Latitude":"37.859657"},"Url":null,"StopType":"onstreetBus"},{"id":"42103","Extensions":{"LocationType":null,"PlatformCode":null,"ParentStation":null},"Name":"Bridgeway & W Harbor Dr","Location":{"Longitude":"-122.501091","Latitude":"37.866898"},"Url":null,"StopType":"onstreetBus"},{"id":"41321","Extensions":{"LocationType":null,"PlatformCode":null,"ParentStation":null},"Name":"Brighton Ave & Wharf Rd","Location":{"Longitude":"-122.686546","Latitude":"37.909275"},"Url":null,"StopType":"onstreetBus"},{"id":"40523","Extensions":{"LocationType":null,"PlatformCode":null,"ParentStation":null},"Name":"Broadway Blvd & Bolinas Ave","Location":{"Longitude":"-122.588791","Latitude":"37.987087"},"Url":null,"StopType":"onstreetBus"},{"id":"40452","Extensions":{"LocationType":null,"PlatformCode":null,"ParentStation":null},"Name":"Canal St & Medway Rd","Location":{"Longitude":"-122.508064","Latitude":"37.965206"},"Url":null,"StopType":"onstreetBus"},{"id":"40454","Extensions":{"LocationType":null,"PlatformCode":null,"ParentStation":null},"Name":"Canal St & Novato St","Location":{"Longitude":"-122.505898","Latitude":"37.965794"},"Url":null,"StopType":"onstreetBus"},{"id":"40457","Extensions":{"LocationType":null,"PlatformCode":null,"ParentStation":null},"Name":"Canal St & Novato St","Location":{"Longitude":"-122.506035","Latitude":"37.965866"},"Url":null,"StopType":"onstreetBus"},{"id":"40456","Extensions":{"LocationType":null,"PlatformCode":null,"ParentStation":null},"Name":"Canal St & Sonoma St","Location":{"Longitude":"-122.503113","Latitude":"37.967022"},"Url":null,"StopType":"onstreetBus"},{"id":"40459","Extensions":{"LocationType":null,"PlatformCode":null,"ParentStation":null},"Name":"Canal St & Sonoma St","Location":{"Longitude":"-122.50354","Latitude":"37.966949"},"Url":null,"StopType":"onstreetBus"},{"id":"40783","Extensions":{"LocationType":null,"PlatformCode":null,"ParentStation":null},"Name":"Castro St & Montezuma Rd","Location":{"Longitude":"-122.690041","Latitude":"38.015057"},"Url":null,"StopType":"onstreetBus"},{"id":"40784","Extensions":{"LocationType":null,"PlatformCode":null,"ParentStation":null},"Name":"Castro St (W) & Sir Francis Drake Blvd","Location":{"Longitude":"-122.695572","Latitude":"38.01413"},"Url":null,"StopType":"onstreetBus"},{"id":"40587","Extensions":{"LocationType":null,"PlatformCode":null,"ParentStation":null},"Name":"Civic Center Dr & Mcinnis Pkwy (Civic Center SMART)","Location":{"Longitude":"-122.5364229","Latitude":"38.00142725"},"Url":null,"StopType":"onstreetBus"},{"id":"40589","Extensions":{"LocationType":null,"PlatformCode":null,"ParentStation":null},"Name":"Civic Center Dr & Mcinnis Pkwy (Civic Center SMART)","Location":{"Longitude":"-122.5364881","Latitude":"38.00129047"},"Url":null,"StopType":"onstreetBus"},{"id":"40585","Extensions":{"LocationType":null,"PlatformCode":null,"ParentStation":null},"Name":"Civic Center Dr & N San Pedro Rd","Location":{"Longitude":"-122.528732","Latitude":"37.997349"},"Url":null,"StopType":"onstreetBus"},{"id":"40586","Extensions":{"LocationType":null,"PlatformCode":null,"ParentStation":null},"Name":"Civic Center Dr & N San Pedro Rd","Location":{"Longitude":"-122.528999","Latitude":"37.997112"},"Url":null,"StopType":"onstreetBus"},{"id":"40349","Extensions":{"LocationType":null,"PlatformCode":null,"ParentStation":null},"Name":"Colg of Marin-College Ave & Sir Francis Drake Blvd","Location":{"Longitude":"-122.54863","Latitude":"37.954258"},"Url":null,"StopType":"onstreetBus"},{"id":"42009","Extensions":{"LocationType":null,"PlatformCode":null,"ParentStation":null},"Name":"College Ave & Kent Ave","Location":{"Longitude":"-122.549774","Latitude":"37.951672"},"Url":null,"StopType":"onstreetBus"},{"id":"42020","Extensions":{"LocationType":null,"PlatformCode":null,"ParentStation":null},"Name":"College Ave & Kent Ave","Location":{"Longitude":"-122.549591","Latitude":"37.950897"},"Url":null,"StopType":"onstreetBus"},{"id":"40330","Extensions":{"LocationType":null,"PlatformCode":null,"ParentStation":null},"Name":"College of Marin College Av & Sir Francis Drake","Location":{"Longitude":"-122.548241","Latitude":"37.954727"},"Url":null,"StopType":"onstreetBus"},{"id":"40334","Extensions":{"LocationType":null,"PlatformCode":null,"ParentStation":null},"Name":"College of Marin - Sir Francis Drake Blvd & Elm Av","Location":{"Longitude":"-122.548515","Latitude":"37.956234"},"Url":null,"StopType":"onstreetBus"},{"id":"40335","Extensions":{"LocationType":null,"PlatformCode":null,"ParentStation":null},"Name":"College Of Marin Sir Francis Drake Blvd & Maple","Location":{"Longitude":"-122.548172","Latitude":"37.95631"},"Url":null,"StopType":"onstreetBus"},{"id":"40538","Extensions":{"LocationType":null,"PlatformCode":null,"ParentStation":null},"Name":"De La Guerra Rd & Del Ganado Rd","Location":{"Longitude":"-122.573318","Latitude":"38.019955"},"Url":null,"StopType":"onstreetBus"},{"id":"40540","Extensions":{"LocationType":null,"PlatformCode":null,"ParentStation":null},"Name":"Del Ganado Rd & Duran Dr","Location":{"Longitude":"-122.570763","Latitude":"38.018585"},"Url":null,"StopType":"onstreetBus"},{"id":"40542","Extensions":{"LocationType":null,"PlatformCode":null,"ParentStation":null},"Name":"Del Ganado Rd & Las Ovejas Av","Location":{"Longitude":"-122.566849","Latitude":"38.016037"},"Url":null,"StopType":"onstreetBus"},{"id":"40543","Extensions":{"LocationType":null,"PlatformCode":null,"ParentStation":null},"Name":"Del Ganado Rd & Las Ovejas Av","Location":{"Longitude":"-122.566818","Latitude":"38.016277"},"Url":null,"StopType":"onstreetBus"},{"id":"40544","Extensions":{"LocationType":null,"PlatformCode":null,"ParentStation":null},"Name":"Del Ganado Rd & Las Raposas Rd","Location":{"Longitude":"-122.561623","Latitude":"38.014709"},"Url":null,"StopType":"onstreetBus"},{"id":"40545","Extensions":{"LocationType":null,"PlatformCode":null,"ParentStation":null},"Name":"Del Ganado Rd & Las Raposas Rd","Location":{"Longitude":"-122.561836","Latitude":"38.015003"},"Url":null,"StopType":"onstreetBus"},{"id":"40550","Extensions":{"LocationType":null,"PlatformCode":null,"ParentStation":null},"Name":"Del Ganado Rd & Manuel T Freitas Pkwy","Location":{"Longitude":"-122.558777","Latitude":"38.013351"},"Url":null,"StopType":"onstreetBus"},{"id":"40698","Extensions":{"LocationType":null,"PlatformCode":null,"ParentStation":null},"Name":"DeLong Ave & Reichert Ave","Location":{"Longitude":"-122.566467","Latitude":"38.10548"},"Url":null,"StopType":"onstreetBus"},{"id":"40699","Extensions":{"LocationType":null,"PlatformCode":null,"ParentStation":null},"Name":"DeLong Ave & Reichert Ave","Location":{"Longitude":"-122.56604","Latitude":"38.105572"},"Url":null,"StopType":"onstreetBus"},{"id":"40701","Extensions":{"LocationType":null,"PlatformCode":null,"ParentStation":null},"Name":"Diablo Av & George St","Location":{"Longitude":"-122.572525","Latitude":"38.103683"},"Url":null,"StopType":"onstreetBus"},{"id":"40700","Extensions":{"LocationType":null,"PlatformCode":null,"ParentStation":null},"Name":"Diablo Av & George St","Location":{"Longitude":"-122.572235","Latitude":"38.104019"},"Url":null,"StopType":"onstreetBus"},{"id":"40327","Extensions":{"LocationType":null,"PlatformCode":null,"ParentStation":null},"Name":"Doherty Dr & Hall Middle School","Location":{"Longitude":"-122.531624","Latitude":"37.938225"},"Url":null,"StopType":"onstreetBus"},{"id":"40309","Extensions":{"LocationType":null,"PlatformCode":null,"ParentStation":null},"Name":"Doherty Dr & Larkspur Plaza Dr","Location":{"Longitude":"-122.532867","Latitude":"37.938156"},"Url":null,"StopType":"onstreetBus"},{"id":"40310","Extensions":{"LocationType":null,"PlatformCode":null,"ParentStation":null},"Name":"Doherty Dr & Larkspur Plaza Dr","Location":{"Longitude":"-122.533646","Latitude":"37.938232"},"Url":null,"StopType":"onstreetBus"},{"id":"40408","Extensions":{"LocationType":null,"PlatformCode":null,"ParentStation":null},"Name":"Dominican University Grand Av & Acacia Av","Location":{"Longitude":"-122.515854","Latitude":"37.979515"},"Url":null,"StopType":"onstreetBus"},{"id":"40121","Extensions":{"LocationType":null,"PlatformCode":null,"ParentStation":null},"Name":"Drake Av & Buckelew St","Location":{"Longitude":"-122.515457","Latitude":"37.873203"},"Url":null,"StopType":"onstreetBus"},{"id":"40123","Extensions":{"LocationType":null,"PlatformCode":null,"ParentStation":null},"Name":"Drake Av & Cole Dr","Location":{"Longitude":"-122.510612","Latitude":"37.868587"},"Url":null,"StopType":"onstreetBus"},{"id":"40125","Extensions":{"LocationType":null,"PlatformCode":null,"ParentStation":null},"Name":"Drake Av & Donahue St","Location":{"Longitude":"-122.509193","Latitude":"37.871292"},"Url":null,"StopType":"onstreetBus"},{"id":"40119","Extensions":{"LocationType":null,"PlatformCode":null,"ParentStation":null},"Name":"Drake Av & Donahue St","Location":{"Longitude":"-122.512413","Latitude":"37.873631"},"Url":null,"StopType":"onstreetBus"},{"id":"41005","Extensions":{"LocationType":null,"PlatformCode":null,"ParentStation":null},"Name":"Drake Av & Pacheco St","Location":{"Longitude":"-122.513466","Latitude":"37.870689"},"Url":null,"StopType":"onstreetBus"},{"id":"40541","Extensions":{"LocationType":null,"PlatformCode":null,"ParentStation":null},"Name":"Duran Dr & Del Ganado Rd","Location":{"Longitude":"-122.570801","Latitude":"38.018471"},"Url":null,"StopType":"onstreetBus"},{"id":"40135","Extensions":{"LocationType":null,"PlatformCode":null,"ParentStation":null},"Name":"E Blithedale Ave & Alta Vista Ave","Location":{"Longitude":"-122.536354","Latitude":"37.903568"},"Url":null,"StopType":"onstreetBus"},{"id":"41038","Extensions":{"LocationType":null,"PlatformCode":null,"ParentStation":null},"Name":"E Blithedale Ave & Camino Alto","Location":{"Longitude":"-122.529175","Latitude":"37.900627"},"Url":null,"StopType":"onstreetBus"},{"id":"40137","Extensions":{"LocationType":null,"PlatformCode":null,"ParentStation":null},"Name":"E Blithedale Ave & East Dr","Location":{"Longitude":"-122.538666","Latitude":"37.903809"},"Url":null,"StopType":"onstreetBus"},{"id":"40138","Extensions":{"LocationType":null,"PlatformCode":null,"ParentStation":null},"Name":"E Blithedale Ave & Elm Ave","Location":{"Longitude":"-122.533493","Latitude":"37.902077"},"Url":null,"StopType":"onstreetBus"},{"id":"40136","Extensions":{"LocationType":null,"PlatformCode":null,"ParentStation":null},"Name":"E Blithedale Ave & Hilarita Ave","Location":{"Longitude":"-122.532631","Latitude":"37.901711"},"Url":null,"StopType":"onstreetBus"},{"id":"40141","Extensions":{"LocationType":null,"PlatformCode":null,"ParentStation":null},"Name":"E Blithedale Ave & Hill St","Location":{"Longitude":"-122.544182","Latitude":"37.905258"},"Url":null,"StopType":"onstreetBus"},{"id":"40130","Extensions":{"LocationType":null,"PlatformCode":null,"ParentStation":null},"Name":"E Blithedale Ave & Kipling Dr","Location":{"Longitude":"-122.519203","Latitude":"37.903465"},"Url":null,"StopType":"onstreetBus"},{"id":"40131","Extensions":{"LocationType":null,"PlatformCode":null,"ParentStation":null},"Name":"E Blithedale Ave & Lomita Dr","Location":{"Longitude":"-122.526245","Latitude":"37.901039"},"Url":null,"StopType":"onstreetBus"},{"id":"40133","Extensions":{"LocationType":null,"PlatformCode":null,"ParentStation":null},"Name":"E Blithedale Ave & Mesa Ave","Location":{"Longitude":"-122.532654","Latitude":"37.90184"},"Url":null,"StopType":"onstreetBus"},{"id":"40139","Extensions":{"LocationType":null,"PlatformCode":null,"ParentStation":null},"Name":"E Blithedale Ave & Mountain View Ave","Location":{"Longitude":"-122.543633","Latitude":"37.905048"},"Url":null,"StopType":"onstreetBus"},{"id":"40134","Extensions":{"LocationType":null,"PlatformCode":null,"ParentStation":null},"Name":"E Blithedale Ave & Nelson Ave","Location":{"Longitude":"-122.529938","Latitude":"37.900665"},"Url":null,"StopType":"onstreetBus"},{"id":"40132","Extensions":{"LocationType":null,"PlatformCode":null,"ParentStation":null},"Name":"E Blithedale Ave & Roque Moraes Dr","Location":{"Longitude":"-122.527687","Latitude":"37.900265"},"Url":null,"StopType":"onstreetBus"},{"id":"40129","Extensions":{"LocationType":null,"PlatformCode":null,"ParentStation":null},"Name":"E Blithedale Ave & Tower Dr","Location":{"Longitude":"-122.519165","Latitude":"37.903687"},"Url":null,"StopType":"onstreetBus"},{"id":"40140","Extensions":{"LocationType":null,"PlatformCode":null,"ParentStation":null},"Name":"E Blithedale Ave & Walnut Ave","Location":{"Longitude":"-122.539543","Latitude":"37.903732"},"Url":null,"StopType":"onstreetBus"},{"id":"42114","Extensions":{"LocationType":null,"PlatformCode":null,"ParentStation":null},"Name":"Enfrente Rd & Salvatore Dr","Location":{"Longitude":"-122.538712","Latitude":"38.067253"},"Url":null,"StopType":"onstreetBus"},{"id":"40471","Extensions":{"LocationType":null,"PlatformCode":null,"ParentStation":null},"Name":"E Sir Francis Drake Blvd & Larkspur Landing","Location":{"Longitude":"-122.510811","Latitude":"37.94603"},"Url":null,"StopType":"onstreetBus"},{"id":"40451","Extensions":{"LocationType":null,"PlatformCode":null,"ParentStation":null},"Name":"Francisco Blvd E & Bay St","Location":{"Longitude":"-122.516441","Latitude":"37.96656"},"Url":null,"StopType":"onstreetBus"},{"id":"40568","Extensions":{"LocationType":null,"PlatformCode":null,"ParentStation":null},"Name":"Freitas Pkwy & Del Presidio Blvd","Location":{"Longitude":"-122.544075","Latitude":"38.007298"},"Url":null,"StopType":"onstreetBus"},{"id":"40569","Extensions":{"LocationType":null,"PlatformCode":null,"ParentStation":null},"Name":"Freitas Pkwy & Northgate Dr","Location":{"Longitude":"-122.5454531","Latitude":"38.00836081"},"Url":null,"StopType":"onstreetBus"},{"id":"40409","Extensions":{"LocationType":null,"PlatformCode":null,"ParentStation":null},"Name":"Grand Av & Acacia Way","Location":{"Longitude":"-122.515656","Latitude":"37.979481"},"Url":null,"StopType":"onstreetBus"},{"id":"40412","Extensions":{"LocationType":null,"PlatformCode":null,"ParentStation":null},"Name":"Grand Av & Belle Av","Location":{"Longitude":"-122.518585","Latitude":"37.975269"},"Url":null,"StopType":"onstreetBus"},{"id":"40413","Extensions":{"LocationType":null,"PlatformCode":null,"ParentStation":null},"Name":"Grand Av & Belle Av","Location":{"Longitude":"-122.518234","Latitude":"37.974697"},"Url":null,"StopType":"onstreetBus"},{"id":"40411","Extensions":{"LocationType":null,"PlatformCode":null,"ParentStation":null},"Name":"Grand Av & Jewell St","Location":{"Longitude":"-122.516747","Latitude":"37.977028"},"Url":null,"StopType":"onstreetBus"},{"id":"40410","Extensions":{"LocationType":null,"PlatformCode":null,"ParentStation":null},"Name":"Grand Av & Jewell St","Location":{"Longitude":"-122.516891","Latitude":"37.977005"},"Url":null,"StopType":"onstreetBus"},{"id":"40404","Extensions":{"LocationType":null,"PlatformCode":null,"ParentStation":null},"Name":"Grand Av & Linden Ln","Location":{"Longitude":"-122.520737","Latitude":"37.982319"},"Url":null,"StopType":"onstreetBus"},{"id":"40405","Extensions":{"LocationType":null,"PlatformCode":null,"ParentStation":null},"Name":"Grand Av & Linden Ln","Location":{"Longitude":"-122.520859","Latitude":"37.982498"},"Url":null,"StopType":"onstreetBus"},{"id":"40406","Extensions":{"LocationType":null,"PlatformCode":null,"ParentStation":null},"Name":"Grand Av & Mountain View Av","Location":{"Longitude":"-122.516907","Latitude":"37.981186"},"Url":null,"StopType":"onstreetBus"},{"id":"40407","Extensions":{"LocationType":null,"PlatformCode":null,"ParentStation":null},"Name":"Grand Av & Mountain View Av","Location":{"Longitude":"-122.516937","Latitude":"37.981342"},"Url":null,"StopType":"onstreetBus"},{"id":"40691","Extensions":{"LocationType":null,"PlatformCode":null,"ParentStation":null},"Name":"Grant Av & Fifth St","Location":{"Longitude":"-122.576073","Latitude":"38.108795"},"Url":null,"StopType":"onstreetBus"},{"id":"40690","Extensions":{"LocationType":null,"PlatformCode":null,"ParentStation":null},"Name":"Grant Av & Fifth St","Location":{"Longitude":"-122.575706","Latitude":"38.108608"},"Url":null,"StopType":"onstreetBus"},{"id":"40692","Extensions":{"LocationType":null,"PlatformCode":null,"ParentStation":null},"Name":"Grant Av & Second St","Location":{"Longitude":"-122.572495","Latitude":"38.107944"},"Url":null,"StopType":"onstreetBus"},{"id":"40693","Extensions":{"LocationType":null,"PlatformCode":null,"ParentStation":null},"Name":"Grant Av & Second St","Location":{"Longitude":"-122.572586","Latitude":"38.108074"},"Url":null,"StopType":"onstreetBus"},{"id":"40770","Extensions":{"LocationType":null,"PlatformCode":null,"ParentStation":null},"Name":"Hamilton Main Gate Nave Dr & Hamilton Main Gate","Location":{"Longitude":"-122.530174","Latitude":"38.056206"},"Url":null,"StopType":"onstreetBus"},{"id":"41318","Extensions":{"LocationType":null,"PlatformCode":null,"ParentStation":null},"Name":"Hamilton Main Gate Rd & Martin Dr","Location":{"Longitude":"-122.529083","Latitude":"38.056274"},"Url":null,"StopType":"onstreetBus"},{"id":"41314","Extensions":{"LocationType":null,"PlatformCode":null,"ParentStation":null},"Name":"Hamilton Pkwy At Marin Airporter","Location":{"Longitude":"-122.530746","Latitude":"38.061626"},"Url":null,"StopType":"onstreetBus"},{"id":"41315","Extensions":{"LocationType":null,"PlatformCode":null,"ParentStation":null},"Name":"Hamilton Pkwy & Chapel Hill Rd","Location":{"Longitude":"-122.522148","Latitude":"38.058834"},"Url":null,"StopType":"onstreetBus"},{"id":"41316","Extensions":{"LocationType":null,"PlatformCode":null,"ParentStation":null},"Name":"Hamilton Pkwy & Sunny Cove Dr","Location":{"Longitude":"-122.52121","Latitude":"38.058914"},"Url":null,"StopType":"onstreetBus"},{"id":"41317","Extensions":{"LocationType":null,"PlatformCode":null,"ParentStation":null},"Name":"Hamilton Theatre Parking Lot","Location":{"Longitude":"-122.519379","Latitude":"38.056629"},"Url":null,"StopType":"onstreetBus"},{"id":"41326","Extensions":{"LocationType":null,"PlatformCode":null,"ParentStation":null},"Name":"Health & Human Services","Location":{"Longitude":"-122.536041","Latitude":"38.020657"},"Url":null,"StopType":"onstreetBus"},{"id":"40624","Extensions":{"LocationType":null,"PlatformCode":null,"ParentStation":null},"Name":"Huckleberry Rd & Appleberry Dr","Location":{"Longitude":"-122.563431","Latitude":"38.025993"},"Url":null,"StopType":"onstreetBus"},{"id":"40625","Extensions":{"LocationType":null,"PlatformCode":null,"ParentStation":null},"Name":"Huckleberry Rd & Appleberry Dr","Location":{"Longitude":"-122.563568","Latitude":"38.025978"},"Url":null,"StopType":"onstreetBus"},{"id":"40627","Extensions":{"LocationType":null,"PlatformCode":null,"ParentStation":null},"Name":"Huckleberry Rd & Idylberry Rd","Location":{"Longitude":"-122.563934","Latitude":"38.028145"},"Url":null,"StopType":"onstreetBus"},{"id":"42011","Extensions":{"LocationType":null,"PlatformCode":null,"ParentStation":null},"Name":"Hwy 101  Alameda Del Prado Bus Pad","Location":{"Longitude":"-122.531723","Latitude":"38.048565"},"Url":null,"StopType":"onstreetBus"},{"id":"40773","Extensions":{"LocationType":null,"PlatformCode":null,"ParentStation":null},"Name":"Hwy 101 Alameda Del Prado Bus Pad","Location":{"Longitude":"-122.532364","Latitude":"38.049103"},"Url":null,"StopType":"onstreetBus"},{"id":"41098","Extensions":{"LocationType":null,"PlatformCode":null,"ParentStation":null},"Name":"Hwy 101  DeLong Ave Bus Pad","Location":{"Longitude":"-122.561378","Latitude":"38.104431"},"Url":null,"StopType":"onstreetBus"},{"id":"41099","Extensions":{"LocationType":null,"PlatformCode":null,"ParentStation":null},"Name":"Hwy 101  DeLong Ave Bus Pad","Location":{"Longitude":"-122.562614","Latitude":"38.104454"},"Url":null,"StopType":"onstreetBus"},{"id":"40746","Extensions":{"LocationType":null,"PlatformCode":null,"ParentStation":null},"Name":"Hwy 101  Ignacio Blvd Bus Pad","Location":{"Longitude":"-122.537041","Latitude":"38.066868"},"Url":null,"StopType":"onstreetBus"},{"id":"40606","Extensions":{"LocationType":null,"PlatformCode":null,"ParentStation":null},"Name":"Hwy 101  Lucas Valley Rd Bus Pad","Location":{"Longitude":"-122.539833","Latitude":"38.020519"},"Url":null,"StopType":"onstreetBus"},{"id":"40268","Extensions":{"LocationType":null,"PlatformCode":null,"ParentStation":null},"Name":"Hwy 101   Lucky Dr Bus Pad","Location":{"Longitude":"-122.516113","Latitude":"37.938656"},"Url":null,"StopType":"onstreetBus"},{"id":"40267","Extensions":{"LocationType":null,"PlatformCode":null,"ParentStation":null},"Name":"Hwy 101  Lucky Dr Bus Pad","Location":{"Longitude":"-122.517029","Latitude":"37.93782"},"Url":null,"StopType":"onstreetBus"},{"id":"40581","Extensions":{"LocationType":null,"PlatformCode":null,"ParentStation":null},"Name":"Hwy 101   N San Pedro Rd Bus Pad","Location":{"Longitude":"-122.533356","Latitude":"37.995335"},"Url":null,"StopType":"onstreetBus"},{"id":"40582","Extensions":{"LocationType":null,"PlatformCode":null,"ParentStation":null},"Name":"Hwy 101  N San Pedro Rd Bus Pad","Location":{"Longitude":"-122.532509","Latitude":"37.995308"},"Url":null,"StopType":"onstreetBus"},{"id":"40296","Extensions":{"LocationType":null,"PlatformCode":null,"ParentStation":null},"Name":"Hwy 101  Paradise Dr Bus Pad","Location":{"Longitude":"-122.51403","Latitude":"37.925442"},"Url":null,"StopType":"onstreetBus"},{"id":"40779","Extensions":{"LocationType":null,"PlatformCode":null,"ParentStation":null},"Name":"Hwy 101  Rowland Blvd Bus Pad","Location":{"Longitude":"-122.560844","Latitude":"38.09129"},"Url":null,"StopType":"onstreetBus"},{"id":"40780","Extensions":{"LocationType":null,"PlatformCode":null,"ParentStation":null},"Name":"Hwy 101  Rowland Blvd Bus Pad","Location":{"Longitude":"-122.557999","Latitude":"38.093472"},"Url":null,"StopType":"onstreetBus"},{"id":"40188","Extensions":{"LocationType":null,"PlatformCode":null,"ParentStation":null},"Name":"Hwy 101  Seminary Dr Bus Pad","Location":{"Longitude":"-122.516365","Latitude":"37.888569"},"Url":null,"StopType":"onstreetBus"},{"id":"40187","Extensions":{"LocationType":null,"PlatformCode":null,"ParentStation":null},"Name":"Hwy 101  Seminary Dr Bus Pad","Location":{"Longitude":"-122.51712","Latitude":"37.889473"},"Url":null,"StopType":"onstreetBus"},{"id":"40607","Extensions":{"LocationType":null,"PlatformCode":null,"ParentStation":null},"Name":"Hwy 101  Smith Ranch Rd Bus Pad","Location":{"Longitude":"-122.539154","Latitude":"38.020069"},"Url":null,"StopType":"onstreetBus"},{"id":"40295","Extensions":{"LocationType":null,"PlatformCode":null,"ParentStation":null},"Name":"Hwy 101  Tamalpais Dr Bus Pad","Location":{"Longitude":"-122.515205","Latitude":"37.926495"},"Url":null,"StopType":"onstreetBus"},{"id":"40170","Extensions":{"LocationType":null,"PlatformCode":null,"ParentStation":null},"Name":"Hwy 101  Tiburon Wye Bus Pad","Location":{"Longitude":"-122.515465","Latitude":"37.901905"},"Url":null,"StopType":"onstreetBus"},{"id":"40164","Extensions":{"LocationType":null,"PlatformCode":null,"ParentStation":null},"Name":"Hwy 101  Tiburon Wye Bus Pad","Location":{"Longitude":"-122.51609","Latitude":"37.903759"},"Url":null,"StopType":"onstreetBus"},{"id":"40631","Extensions":{"LocationType":null,"PlatformCode":null,"ParentStation":null},"Name":"Idylberry Rd & Danberry Ln","Location":{"Longitude":"-122.557632","Latitude":"38.02906"},"Url":null,"StopType":"onstreetBus"},{"id":"40630","Extensions":{"LocationType":null,"PlatformCode":null,"ParentStation":null},"Name":"Idylberry Rd & Danberry Ln","Location":{"Longitude":"-122.557961","Latitude":"38.028778"},"Url":null,"StopType":"onstreetBus"},{"id":"40628","Extensions":{"LocationType":null,"PlatformCode":null,"ParentStation":null},"Name":"Idylberry Rd & Elderberry Ln","Location":{"Longitude":"-122.559814","Latitude":"38.028198"},"Url":null,"StopType":"onstreetBus"},{"id":"40626","Extensions":{"LocationType":null,"PlatformCode":null,"ParentStation":null},"Name":"Idylberry Rd & Huckleberry Rd","Location":{"Longitude":"-122.563683","Latitude":"38.028275"},"Url":null,"StopType":"onstreetBus"},{"id":"40632","Extensions":{"LocationType":null,"PlatformCode":null,"ParentStation":null},"Name":"Idylberry Rd & Juniperberry Dr","Location":{"Longitude":"-122.553391","Latitude":"38.029705"},"Url":null,"StopType":"onstreetBus"},{"id":"40633","Extensions":{"LocationType":null,"PlatformCode":null,"ParentStation":null},"Name":"Idylberry Rd & Juniperberry Dr","Location":{"Longitude":"-122.553482","Latitude":"38.029816"},"Url":null,"StopType":"onstreetBus"},{"id":"40614","Extensions":{"LocationType":null,"PlatformCode":null,"ParentStation":null},"Name":"Idylberry Rd & Mount Hood Ct","Location":{"Longitude":"-122.579216","Latitude":"38.031555"},"Url":null,"StopType":"onstreetBus"},{"id":"40620","Extensions":{"LocationType":null,"PlatformCode":null,"ParentStation":null},"Name":"Idylberry Rd & Mount Lassen Dr","Location":{"Longitude":"-122.569443","Latitude":"38.028191"},"Url":null,"StopType":"onstreetBus"},{"id":"40618","Extensions":{"LocationType":null,"PlatformCode":null,"ParentStation":null},"Name":"Idylberry Rd & Mount Palomar Ct","Location":{"Longitude":"-122.572067","Latitude":"38.028587"},"Url":null,"StopType":"onstreetBus"},{"id":"40616","Extensions":{"LocationType":null,"PlatformCode":null,"ParentStation":null},"Name":"Idylberry Rd & Mount Shasta Dr","Location":{"Longitude":"-122.575935","Latitude":"38.030247"},"Url":null,"StopType":"onstreetBus"},{"id":"40629","Extensions":{"LocationType":null,"PlatformCode":null,"ParentStation":null},"Name":"Idylberry Rd & Newberry Terrace","Location":{"Longitude":"-122.560219","Latitude":"38.028324"},"Url":null,"StopType":"onstreetBus"},{"id":"40743","Extensions":{"LocationType":null,"PlatformCode":null,"ParentStation":null},"Name":"Ignacio Blvd & Alameda Del Prado","Location":{"Longitude":"-122.541313","Latitude":"38.065868"},"Url":null,"StopType":"onstreetBus"},{"id":"40744","Extensions":{"LocationType":null,"PlatformCode":null,"ParentStation":null},"Name":"Ignacio Blvd & Alameda Del Prado","Location":{"Longitude":"-122.541466","Latitude":"38.066078"},"Url":null,"StopType":"onstreetBus"},{"id":"40742","Extensions":{"LocationType":null,"PlatformCode":null,"ParentStation":null},"Name":"Ignacio Blvd At Pacheco Plaza","Location":{"Longitude":"-122.54285","Latitude":"38.06648555"},"Url":null,"StopType":"onstreetBus"},{"id":"40733","Extensions":{"LocationType":null,"PlatformCode":null,"ParentStation":null},"Name":"Ignacio Blvd & Country Club Dr","Location":{"Longitude":"-122.558212","Latitude":"38.068596"},"Url":null,"StopType":"onstreetBus"},{"id":"40734","Extensions":{"LocationType":null,"PlatformCode":null,"ParentStation":null},"Name":"Ignacio Blvd & Country Club Dr","Location":{"Longitude":"-122.55809","Latitude":"38.068764"},"Url":null,"StopType":"onstreetBus"},{"id":"40739","Extensions":{"LocationType":null,"PlatformCode":null,"ParentStation":null},"Name":"Ignacio Blvd & Entrada Dr","Location":{"Longitude":"-122.545692","Latitude":"38.068066"},"Url":null,"StopType":"onstreetBus"},{"id":"40740","Extensions":{"LocationType":null,"PlatformCode":null,"ParentStation":null},"Name":"Ignacio Blvd & Entrada Dr","Location":{"Longitude":"-122.545853","Latitude":"38.068268"},"Url":null,"StopType":"onstreetBus"},{"id":"40736","Extensions":{"LocationType":null,"PlatformCode":null,"ParentStation":null},"Name":"Ignacio Blvd & Fairway Dr","Location":{"Longitude":"-122.553322","Latitude":"38.069065"},"Url":null,"StopType":"onstreetBus"},{"id":"40735","Extensions":{"LocationType":null,"PlatformCode":null,"ParentStation":null},"Name":"Ignacio Blvd & Fairway Dr","Location":{"Longitude":"-122.553223","Latitude":"38.068993"},"Url":null,"StopType":"onstreetBus"},{"id":"40727","Extensions":{"LocationType":null,"PlatformCode":null,"ParentStation":null},"Name":"Ignacio Blvd & Indian Hills Dr","Location":{"Longitude":"-122.573456","Latitude":"38.076298"},"Url":null,"StopType":"onstreetBus"},{"id":"40738","Extensions":{"LocationType":null,"PlatformCode":null,"ParentStation":null},"Name":"Ignacio Blvd & Palmer Dr","Location":{"Longitude":"-122.549797","Latitude":"38.068928"},"Url":null,"StopType":"onstreetBus"},{"id":"40737","Extensions":{"LocationType":null,"PlatformCode":null,"ParentStation":null},"Name":"Ignacio Blvd & Palmer Dr","Location":{"Longitude":"-122.549561","Latitude":"38.068832"},"Url":null,"StopType":"onstreetBus"},{"id":"40732","Extensions":{"LocationType":null,"PlatformCode":null,"ParentStation":null},"Name":"Ignacio Blvd & San Jose Blvd","Location":{"Longitude":"-122.564049","Latitude":"38.071705"},"Url":null,"StopType":"onstreetBus"},{"id":"40726","Extensions":{"LocationType":null,"PlatformCode":null,"ParentStation":null},"Name":"Ignacio Blvd & Sunset Pkwy","Location":{"Longitude":"-122.568398","Latitude":"38.074959"},"Url":null,"StopType":"onstreetBus"},{"id":"40730","Extensions":{"LocationType":null,"PlatformCode":null,"ParentStation":null},"Name":"Ignacio Blvd & Turner Dr","Location":{"Longitude":"-122.565399","Latitude":"38.073357"},"Url":null,"StopType":"onstreetBus"},{"id":"40729","Extensions":{"LocationType":null,"PlatformCode":null,"ParentStation":null},"Name":"Ignacio Blvd & Turner Dr","Location":{"Longitude":"-122.565376","Latitude":"38.073181"},"Url":null,"StopType":"onstreetBus"},{"id":"40724","Extensions":{"LocationType":null,"PlatformCode":null,"ParentStation":null},"Name":"Ignacio Blvd & Ulloa Dr","Location":{"Longitude":"-122.566772","Latitude":"38.07423"},"Url":null,"StopType":"onstreetBus"},{"id":"40728","Extensions":{"LocationType":null,"PlatformCode":null,"ParentStation":null},"Name":"Indian Valley College","Location":{"Longitude":"-122.577187","Latitude":"38.075802"},"Url":null,"StopType":"onstreetBus"},{"id":"40800","Extensions":{"LocationType":null,"PlatformCode":null,"ParentStation":null},"Name":"Inverness Store","Location":{"Longitude":"-122.851524","Latitude":"38.096519"},"Url":null,"StopType":"onstreetBus"},{"id":"41095","Extensions":{"LocationType":null,"PlatformCode":null,"ParentStation":null},"Name":"Irene St & Francisco Blvd E","Location":{"Longitude":"-122.500305","Latitude":"37.956749"},"Url":null,"StopType":"onstreetBus"},{"id":"40461","Extensions":{"LocationType":null,"PlatformCode":null,"ParentStation":null},"Name":"Kerner Blvd & Bahia Way","Location":{"Longitude":"-122.501236","Latitude":"37.964417"},"Url":null,"StopType":"onstreetBus"},{"id":"40465","Extensions":{"LocationType":null,"PlatformCode":null,"ParentStation":null},"Name":"Kerner Blvd btwn 3140 & 3160","Location":{"Longitude":"-122.501129","Latitude":"37.95866"},"Url":null,"StopType":"onstreetBus"},{"id":"40445","Extensions":{"LocationType":null,"PlatformCode":null,"ParentStation":null},"Name":"Kerner Blvd & Canal St","Location":{"Longitude":"-122.49971","Latitude":"37.96788"},"Url":null,"StopType":"onstreetBus"},{"id":"40446","Extensions":{"LocationType":null,"PlatformCode":null,"ParentStation":null},"Name":"Kerner Blvd & Canal St","Location":{"Longitude":"-122.499451","Latitude":"37.967892"},"Url":null,"StopType":"onstreetBus"},{"id":"40458","Extensions":{"LocationType":null,"PlatformCode":null,"ParentStation":null},"Name":"Kerner Blvd & Fairfax St","Location":{"Longitude":"-122.501518","Latitude":"37.964436"},"Url":null,"StopType":"onstreetBus"},{"id":"40463","Extensions":{"LocationType":null,"PlatformCode":null,"ParentStation":null},"Name":"Kerner Blvd & Larkspur St","Location":{"Longitude":"-122.502007","Latitude":"37.962776"},"Url":null,"StopType":"onstreetBus"},{"id":"40460","Extensions":{"LocationType":null,"PlatformCode":null,"ParentStation":null},"Name":"Kerner Blvd & Larkspur St","Location":{"Longitude":"-122.50219","Latitude":"37.962448"},"Url":null,"StopType":"onstreetBus"},{"id":"40353","Extensions":{"LocationType":null,"PlatformCode":null,"ParentStation":null},"Name":"Lagoon Rd & Peacock Dr","Location":{"Longitude":"-122.4699841","Latitude":"37.98418495"},"Url":null,"StopType":"onstreetBus"},{"id":"40590","Extensions":{"LocationType":null,"PlatformCode":null,"ParentStation":null},"Name":"La Pasada Way & N San Pedro Rd","Location":{"Longitude":"-122.517761","Latitude":"38.011005"},"Url":null,"StopType":"onstreetBus"},{"id":"41333","Extensions":{"LocationType":null,"PlatformCode":null,"ParentStation":null},"Name":"Larkspur Landing Cir & Lincoln Village Cir","Location":{"Longitude":"-122.506561","Latitude":"37.946812"},"Url":null,"StopType":"onstreetBus"},{"id":"40528","Extensions":{"LocationType":null,"PlatformCode":null,"ParentStation":null},"Name":"Las Gallinas Av & Cedar Hill Dr","Location":{"Longitude":"-122.548393","Latitude":"38.025276"},"Url":null,"StopType":"onstreetBus"},{"id":"40564","Extensions":{"LocationType":null,"PlatformCode":null,"ParentStation":null},"Name":"Las Gallinas Ave at Northgate Mall","Location":{"Longitude":"-122.541908","Latitude":"38.005165"},"Url":null,"StopType":"onstreetBus"},{"id":"40646","Extensions":{"LocationType":null,"PlatformCode":null,"ParentStation":null},"Name":"Las Gallinas Av & Ellen Dr","Location":{"Longitude":"-122.547318","Latitude":"38.026943"},"Url":null,"StopType":"onstreetBus"},{"id":"40647","Extensions":{"LocationType":null,"PlatformCode":null,"ParentStation":null},"Name":"Las Gallinas Av & Ellen Dr","Location":{"Longitude":"-122.54731","Latitude":"38.026684"},"Url":null,"StopType":"onstreetBus"},{"id":"40644","Extensions":{"LocationType":null,"PlatformCode":null,"ParentStation":null},"Name":"Las Gallinas Av & Elvia Ct","Location":{"Longitude":"-122.545921","Latitude":"38.029091"},"Url":null,"StopType":"onstreetBus"},{"id":"40645","Extensions":{"LocationType":null,"PlatformCode":null,"ParentStation":null},"Name":"Las Gallinas Av & Elvia Ct","Location":{"Longitude":"-122.545929","Latitude":"38.028706"},"Url":null,"StopType":"onstreetBus"},{"id":"40563","Extensions":{"LocationType":null,"PlatformCode":null,"ParentStation":null},"Name":"Las Gallinas Ave & Northgate Dr","Location":{"Longitude":"-122.546242","Latitude":"38.006889"},"Url":null,"StopType":"onstreetBus"},{"id":"40562","Extensions":{"LocationType":null,"PlatformCode":null,"ParentStation":null},"Name":"Las Gallinas Ave & Northgate Dr","Location":{"Longitude":"-122.5458137","Latitude":"38.00669929"},"Url":null,"StopType":"onstreetBus"},{"id":"40565","Extensions":{"LocationType":null,"PlatformCode":null,"ParentStation":null},"Name":"Las Gallinas Ave & Northgate Mall","Location":{"Longitude":"-122.541786","Latitude":"38.004673"},"Url":null,"StopType":"onstreetBus"},{"id":"40556","Extensions":{"LocationType":null,"PlatformCode":null,"ParentStation":null},"Name":"Las Gallinas Ave & Nova Albion Way","Location":{"Longitude":"-122.54921","Latitude":"38.008488"},"Url":null,"StopType":"onstreetBus"},{"id":"40536","Extensions":{"LocationType":null,"PlatformCode":null,"ParentStation":null},"Name":"Las Gallinas Av & Holly Dr","Location":{"Longitude":"-122.548973","Latitude":"38.0103"},"Url":null,"StopType":"onstreetBus"},{"id":"40534","Extensions":{"LocationType":null,"PlatformCode":null,"ParentStation":null},"Name":"Las Gallinas Av & Las Colindas Rd","Location":{"Longitude":"-122.549515","Latitude":"38.013268"},"Url":null,"StopType":"onstreetBus"},{"id":"40535","Extensions":{"LocationType":null,"PlatformCode":null,"ParentStation":null},"Name":"Las Gallinas Av & Las Colindas Rd","Location":{"Longitude":"-122.54921","Latitude":"38.013096"},"Url":null,"StopType":"onstreetBus"},{"id":"40530","Extensions":{"LocationType":null,"PlatformCode":null,"ParentStation":null},"Name":"Las Gallinas Av & Maple Hill Dr","Location":{"Longitude":"-122.55014","Latitude":"38.022488"},"Url":null,"StopType":"onstreetBus"},{"id":"40648","Extensions":{"LocationType":null,"PlatformCode":null,"ParentStation":null},"Name":"Las Gallinas Av & Miller Creek Rd","Location":{"Longitude":"-122.544685","Latitude":"38.032425"},"Url":null,"StopType":"onstreetBus"},{"id":"40533","Extensions":{"LocationType":null,"PlatformCode":null,"ParentStation":null},"Name":"Las Gallinas Av & Montevideo Way","Location":{"Longitude":"-122.551247","Latitude":"38.019073"},"Url":null,"StopType":"onstreetBus"},{"id":"40577","Extensions":{"LocationType":null,"PlatformCode":null,"ParentStation":null},"Name":"Las Gallinas Av & Nova Albion Way","Location":{"Longitude":"-122.548752","Latitude":"38.008133"},"Url":null,"StopType":"onstreetBus"},{"id":"40537","Extensions":{"LocationType":null,"PlatformCode":null,"ParentStation":null},"Name":"Las Gallinas Av & Oleander Dr","Location":{"Longitude":"-122.548645","Latitude":"38.011395"},"Url":null,"StopType":"onstreetBus"},{"id":"40532","Extensions":{"LocationType":null,"PlatformCode":null,"ParentStation":null},"Name":"Las Gallinas Av & Park Ridge Av","Location":{"Longitude":"-122.551689","Latitude":"38.01902"},"Url":null,"StopType":"onstreetBus"},{"id":"40529","Extensions":{"LocationType":null,"PlatformCode":null,"ParentStation":null},"Name":"Las Gallinas Av & Santiago Way","Location":{"Longitude":"-122.54821","Latitude":"38.024994"},"Url":null,"StopType":"onstreetBus"},{"id":"40531","Extensions":{"LocationType":null,"PlatformCode":null,"ParentStation":null},"Name":"Las Gallinas Av & Skyview Terrace","Location":{"Longitude":"-122.54995","Latitude":"38.022205"},"Url":null,"StopType":"onstreetBus"},{"id":"40392","Extensions":{"LocationType":null,"PlatformCode":null,"ParentStation":null},"Name":"Lincoln Ave & Grand Ave","Location":{"Longitude":"-122.524635","Latitude":"37.98373"},"Url":null,"StopType":"onstreetBus"},{"id":"40393","Extensions":{"LocationType":null,"PlatformCode":null,"ParentStation":null},"Name":"Lincoln Ave & Grand Ave","Location":{"Longitude":"-122.524712","Latitude":"37.98407"},"Url":null,"StopType":"onstreetBus"},{"id":"40394","Extensions":{"LocationType":null,"PlatformCode":null,"ParentStation":null},"Name":"Lincoln Ave & Linden Ln","Location":{"Longitude":"-122.522621","Latitude":"37.980564"},"Url":null,"StopType":"onstreetBus"},{"id":"40395","Extensions":{"LocationType":null,"PlatformCode":null,"ParentStation":null},"Name":"Lincoln Ave & Linden Ln","Location":{"Longitude":"-122.522812","Latitude":"37.981155"},"Url":null,"StopType":"onstreetBus"},{"id":"40399","Extensions":{"LocationType":null,"PlatformCode":null,"ParentStation":null},"Name":"Lincoln Ave & Mission Ave","Location":{"Longitude":"-122.523285","Latitude":"37.974483"},"Url":null,"StopType":"onstreetBus"},{"id":"40398","Extensions":{"LocationType":null,"PlatformCode":null,"ParentStation":null},"Name":"Lincoln Ave & Mission Ave","Location":{"Longitude":"-122.523514","Latitude":"37.97419"},"Url":null,"StopType":"onstreetBus"},{"id":"40397","Extensions":{"LocationType":null,"PlatformCode":null,"ParentStation":null},"Name":"Lincoln Ave & Paloma Ave","Location":{"Longitude":"-122.522049","Latitude":"37.978073"},"Url":null,"StopType":"onstreetBus"},{"id":"40396","Extensions":{"LocationType":null,"PlatformCode":null,"ParentStation":null},"Name":"Lincoln Ave & Paloma Ave","Location":{"Longitude":"-122.522209","Latitude":"37.978031"},"Url":null,"StopType":"onstreetBus"},{"id":"40390","Extensions":{"LocationType":null,"PlatformCode":null,"ParentStation":null},"Name":"Lincoln Ave & Wilson Ct","Location":{"Longitude":"-122.526596","Latitude":"37.986759"},"Url":null,"StopType":"onstreetBus"},{"id":"40391","Extensions":{"LocationType":null,"PlatformCode":null,"ParentStation":null},"Name":"Lincoln Ave & Wilson Ct","Location":{"Longitude":"-122.526527","Latitude":"37.986877"},"Url":null,"StopType":"onstreetBus"},{"id":"40573","Extensions":{"LocationType":null,"PlatformCode":null,"ParentStation":null},"Name":"Los Ranchitos Rd & Circle Rd","Location":{"Longitude":"-122.541023","Latitude":"37.994781"},"Url":null,"StopType":"onstreetBus"},{"id":"40574","Extensions":{"LocationType":null,"PlatformCode":null,"ParentStation":null},"Name":"Los Ranchitos Rd & Circle Rd","Location":{"Longitude":"-122.540924","Latitude":"37.994881"},"Url":null,"StopType":"onstreetBus"},{"id":"40571","Extensions":{"LocationType":null,"PlatformCode":null,"ParentStation":null},"Name":"Los Ranchitos Rd & Golden Hinde Blvd","Location":{"Longitude":"-122.54171","Latitude":"37.998405"},"Url":null,"StopType":"onstreetBus"},{"id":"40572","Extensions":{"LocationType":null,"PlatformCode":null,"ParentStation":null},"Name":"Los Ranchitos Rd & Golden Hinde Blvd","Location":{"Longitude":"-122.541519","Latitude":"37.998249"},"Url":null,"StopType":"onstreetBus"},{"id":"40566","Extensions":{"LocationType":null,"PlatformCode":null,"ParentStation":null},"Name":"Los Ranchitos Rd & Northgate Dr","Location":{"Longitude":"-122.542656","Latitude":"38.00135"},"Url":null,"StopType":"onstreetBus"},{"id":"40567","Extensions":{"LocationType":null,"PlatformCode":null,"ParentStation":null},"Name":"Los Ranchitos Rd & Northgate Dr","Location":{"Longitude":"-122.542358","Latitude":"38.001068"},"Url":null,"StopType":"onstreetBus"},{"id":"40576","Extensions":{"LocationType":null,"PlatformCode":null,"ParentStation":null},"Name":"Los Ranchitos Rd & Ranch Rd","Location":{"Longitude":"-122.536598","Latitude":"37.992523"},"Url":null,"StopType":"onstreetBus"},{"id":"40575","Extensions":{"LocationType":null,"PlatformCode":null,"ParentStation":null},"Name":"Los Ranchitos Rd & Ranch Rd","Location":{"Longitude":"-122.536407","Latitude":"37.992405"},"Url":null,"StopType":"onstreetBus"},{"id":"40651","Extensions":{"LocationType":null,"PlatformCode":null,"ParentStation":null},"Name":"Lucas Valley Rd & Huckleberry Rd","Location":{"Longitude":"-122.56321","Latitude":"38.025517"},"Url":null,"StopType":"onstreetBus"},{"id":"40610","Extensions":{"LocationType":null,"PlatformCode":null,"ParentStation":null},"Name":"Lucas Valley Rd & Mount Muir Ct","Location":{"Longitude":"-122.57357","Latitude":"38.026791"},"Url":null,"StopType":"onstreetBus"},{"id":"40313","Extensions":{"LocationType":null,"PlatformCode":null,"ParentStation":null},"Name":"Lucky Dr & Riviera Circle","Location":{"Longitude":"-122.521591","Latitude":"37.937267"},"Url":null,"StopType":"onstreetBus"},{"id":"40314","Extensions":{"LocationType":null,"PlatformCode":null,"ParentStation":null},"Name":"Lucky Dr & Riviera Circle","Location":{"Longitude":"-122.521645","Latitude":"37.937347"},"Url":null,"StopType":"onstreetBus"},{"id":"40282","Extensions":{"LocationType":null,"PlatformCode":null,"ParentStation":null},"Name":"Madera Blvd & Mohawk Av","Location":{"Longitude":"-122.518585","Latitude":"37.926239"},"Url":null,"StopType":"onstreetBus"},{"id":"40274","Extensions":{"LocationType":null,"PlatformCode":null,"ParentStation":null},"Name":"Madera Blvd & Monona Dr","Location":{"Longitude":"-122.518608","Latitude":"37.928059"},"Url":null,"StopType":"onstreetBus"},{"id":"40308","Extensions":{"LocationType":null,"PlatformCode":null,"ParentStation":null},"Name":"Magnolia Av & Alexander Av","Location":{"Longitude":"-122.53392","Latitude":"37.92947"},"Url":null,"StopType":"onstreetBus"},{"id":"40298","Extensions":{"LocationType":null,"PlatformCode":null,"ParentStation":null},"Name":"Magnolia Ave and Estelle Ave","Location":{"Longitude":"-122.548943","Latitude":"37.948391"},"Url":null,"StopType":"onstreetBus"},{"id":"40301","Extensions":{"LocationType":null,"PlatformCode":null,"ParentStation":null},"Name":"Magnolia Ave & Bon Air Rd","Location":{"Longitude":"-122.540535","Latitude":"37.943031"},"Url":null,"StopType":"onstreetBus"},{"id":"40302","Extensions":{"LocationType":null,"PlatformCode":null,"ParentStation":null},"Name":"Magnolia Ave & Bon Air Rd","Location":{"Longitude":"-122.54071","Latitude":"37.943386"},"Url":null,"StopType":"onstreetBus"},{"id":"40300","Extensions":{"LocationType":null,"PlatformCode":null,"ParentStation":null},"Name":"Magnolia Ave & Dartmouth Dr","Location":{"Longitude":"-122.542938","Latitude":"37.945011"},"Url":null,"StopType":"onstreetBus"},{"id":"40225","Extensions":{"LocationType":null,"PlatformCode":null,"ParentStation":null},"Name":"Magnolia Ave & Frances Ave","Location":{"Longitude":"-122.546364","Latitude":"37.94696"},"Url":null,"StopType":"onstreetBus"},{"id":"40297","Extensions":{"LocationType":null,"PlatformCode":null,"ParentStation":null},"Name":"Magnolia Ave & Frances Ave","Location":{"Longitude":"-122.546364","Latitude":"37.946831"},"Url":null,"StopType":"onstreetBus"},{"id":"40299","Extensions":{"LocationType":null,"PlatformCode":null,"ParentStation":null},"Name":"Magnolia Ave & Skylark Dr","Location":{"Longitude":"-122.543015","Latitude":"37.944588"},"Url":null,"StopType":"onstreetBus"},{"id":"40305","Extensions":{"LocationType":null,"PlatformCode":null,"ParentStation":null},"Name":"Magnolia Av & Madrone Av","Location":{"Longitude":"-122.536064","Latitude":"37.932579"},"Url":null,"StopType":"onstreetBus"},{"id":"40306","Extensions":{"LocationType":null,"PlatformCode":null,"ParentStation":null},"Name":"Magnolia Av & Madrone Av","Location":{"Longitude":"-122.535934","Latitude":"37.932655"},"Url":null,"StopType":"onstreetBus"},{"id":"40307","Extensions":{"LocationType":null,"PlatformCode":null,"ParentStation":null},"Name":"Magnolia Av & Park Way","Location":{"Longitude":"-122.53344","Latitude":"37.929089"},"Url":null,"StopType":"onstreetBus"},{"id":"40304","Extensions":{"LocationType":null,"PlatformCode":null,"ParentStation":null},"Name":"Magnolia Av & Ward St","Location":{"Longitude":"-122.53508","Latitude":"37.936222"},"Url":null,"StopType":"onstreetBus"},{"id":"40303","Extensions":{"LocationType":null,"PlatformCode":null,"ParentStation":null},"Name":"Magnolia Av & Ward St","Location":{"Longitude":"-122.535309","Latitude":"37.935921"},"Url":null,"StopType":"onstreetBus"},{"id":"40548","Extensions":{"LocationType":null,"PlatformCode":null,"ParentStation":null},"Name":"Manuel T Freitas Pkwy & Del Ganado Rd","Location":{"Longitude":"-122.558533","Latitude":"38.012707"},"Url":null,"StopType":"onstreetBus"},{"id":"40549","Extensions":{"LocationType":null,"PlatformCode":null,"ParentStation":null},"Name":"Manuel T Freitas Pkwy & Del Ganado Rd","Location":{"Longitude":"-122.559372","Latitude":"38.01292"},"Url":null,"StopType":"onstreetBus"},{"id":"40553","Extensions":{"LocationType":null,"PlatformCode":null,"ParentStation":null},"Name":"Manuel T Freitas Pkwy & Las Gallinas Av","Location":{"Longitude":"-122.549629","Latitude":"38.009735"},"Url":null,"StopType":"onstreetBus"},{"id":"40551","Extensions":{"LocationType":null,"PlatformCode":null,"ParentStation":null},"Name":"Manuel T Freitas Pkwy & Las Pavadas Av","Location":{"Longitude":"-122.555374","Latitude":"38.011406"},"Url":null,"StopType":"onstreetBus"},{"id":"40552","Extensions":{"LocationType":null,"PlatformCode":null,"ParentStation":null},"Name":"Manuel T Freitas Pkwy & Las Pavadas Av","Location":{"Longitude":"-122.555412","Latitude":"38.011837"},"Url":null,"StopType":"onstreetBus"},{"id":"40546","Extensions":{"LocationType":null,"PlatformCode":null,"ParentStation":null},"Name":"Manuel T Freitas Pkwy & Montecillo Rd","Location":{"Longitude":"-122.561073","Latitude":"38.011745"},"Url":null,"StopType":"onstreetBus"},{"id":"40162","Extensions":{"LocationType":null,"PlatformCode":null,"ParentStation":null},"Name":"Manzanita Park & Ride Lot","Location":{"Longitude":"-122.516365","Latitude":"37.879612"},"Url":null,"StopType":"onstreetBus"},{"id":"44113","Extensions":{"LocationType":null,"PlatformCode":null,"ParentStation":null},"Name":"Marin City Hub","Location":{"Longitude":"-122.511314","Latitude":"37.871948"},"Url":null,"StopType":"onstreetBus"},{"id":"40113","Extensions":{"LocationType":null,"PlatformCode":null,"ParentStation":null},"Name":"Marin City Hub","Location":{"Longitude":"-122.511574","Latitude":"37.872276"},"Url":null,"StopType":"onstreetBus"},{"id":"40605","Extensions":{"LocationType":null,"PlatformCode":null,"ParentStation":null},"Name":"Marin Civic Center-Judge Haley Dr & Civic Ctr Dr","Location":{"Longitude":"-122.531097","Latitude":"37.998161"},"Url":null,"StopType":"onstreetBus"},{"id":"41330","Extensions":{"LocationType":null,"PlatformCode":null,"ParentStation":null},"Name":"Marin Civic Center-Judge Haley Dr & Civic Ctr Dr","Location":{"Longitude":"-122.531242","Latitude":"37.998219"},"Url":null,"StopType":"onstreetBus"},{"id":"41072","Extensions":{"LocationType":null,"PlatformCode":null,"ParentStation":null},"Name":"Marin Health Medical Center-250 Bon Air Rd","Location":{"Longitude":"-122.537308","Latitude":"37.94696"},"Url":null,"StopType":"onstreetBus"},{"id":"42113","Extensions":{"LocationType":null,"PlatformCode":null,"ParentStation":null},"Name":"Marinwood Bus Pad Hwy 101  Miller Creek Rd","Location":{"Longitude":"-122.537376","Latitude":"38.034237"},"Url":null,"StopType":"onstreetBus"},{"id":"42032","Extensions":{"LocationType":null,"PlatformCode":null,"ParentStation":null},"Name":"Marinwood Bus Pad Hwy 101  Saint Vincent's Dr","Location":{"Longitude":"-122.536812","Latitude":"38.033489"},"Url":null,"StopType":"onstreetBus"},{"id":"40449","Extensions":{"LocationType":null,"PlatformCode":null,"ParentStation":null},"Name":"Medway Rd & Francisco Blvd E","Location":{"Longitude":"-122.510101","Latitude":"37.9631"},"Url":null,"StopType":"onstreetBus"},{"id":"40455","Extensions":{"LocationType":null,"PlatformCode":null,"ParentStation":null},"Name":"Medway Rd & Mill St","Location":{"Longitude":"-122.508949","Latitude":"37.964584"},"Url":null,"StopType":"onstreetBus"},{"id":"40580","Extensions":{"LocationType":null,"PlatformCode":null,"ParentStation":null},"Name":"Merrydale Rd & N San Pedro Rd","Location":{"Longitude":"-122.534233","Latitude":"37.994591"},"Url":null,"StopType":"onstreetBus"},{"id":"40150","Extensions":{"LocationType":null,"PlatformCode":null,"ParentStation":null},"Name":"Miller Ave & Camino Alto","Location":{"Longitude":"-122.531471","Latitude":"37.893707"},"Url":null,"StopType":"onstreetBus"},{"id":"40149","Extensions":{"LocationType":null,"PlatformCode":null,"ParentStation":null},"Name":"Miller Ave & Camino Alto","Location":{"Longitude":"-122.530632","Latitude":"37.892899"},"Url":null,"StopType":"onstreetBus"},{"id":"40146","Extensions":{"LocationType":null,"PlatformCode":null,"ParentStation":null},"Name":"Miller Ave & Locust Ave","Location":{"Longitude":"-122.538239","Latitude":"37.898731"},"Url":null,"StopType":"onstreetBus"},{"id":"40145","Extensions":{"LocationType":null,"PlatformCode":null,"ParentStation":null},"Name":"Miller Ave & Montford Ave","Location":{"Longitude":"-122.537285","Latitude":"37.897587"},"Url":null,"StopType":"onstreetBus"},{"id":"40144","Extensions":{"LocationType":null,"PlatformCode":null,"ParentStation":null},"Name":"Miller Ave & Park Ave","Location":{"Longitude":"-122.541519","Latitude":"37.901619"},"Url":null,"StopType":"onstreetBus"},{"id":"40147","Extensions":{"LocationType":null,"PlatformCode":null,"ParentStation":null},"Name":"Miller Ave & Reed St","Location":{"Longitude":"-122.534416","Latitude":"37.895096"},"Url":null,"StopType":"onstreetBus"},{"id":"40148","Extensions":{"LocationType":null,"PlatformCode":null,"ParentStation":null},"Name":"Miller Ave & Reed St","Location":{"Longitude":"-122.534554","Latitude":"37.895607"},"Url":null,"StopType":"onstreetBus"},{"id":"40143","Extensions":{"LocationType":null,"PlatformCode":null,"ParentStation":null},"Name":"Miller Ave & Una Way","Location":{"Longitude":"-122.541756","Latitude":"37.901405"},"Url":null,"StopType":"onstreetBus"},{"id":"40638","Extensions":{"LocationType":null,"PlatformCode":null,"ParentStation":null},"Name":"Miller Creek Rd & Las Gallinas Av","Location":{"Longitude":"-122.544014","Latitude":"38.032578"},"Url":null,"StopType":"onstreetBus"},{"id":"40639","Extensions":{"LocationType":null,"PlatformCode":null,"ParentStation":null},"Name":"Miller Creek Rd & Las Gallinas Av","Location":{"Longitude":"-122.544975","Latitude":"38.032951"},"Url":null,"StopType":"onstreetBus"},{"id":"40640","Extensions":{"LocationType":null,"PlatformCode":null,"ParentStation":null},"Name":"Miller Creek Rd & Marinwood Av","Location":{"Longitude":"-122.54052","Latitude":"38.033245"},"Url":null,"StopType":"onstreetBus"},{"id":"40641","Extensions":{"LocationType":null,"PlatformCode":null,"ParentStation":null},"Name":"Miller Creek Rd & Marinwood Av","Location":{"Longitude":"-122.540741","Latitude":"38.033512"},"Url":null,"StopType":"onstreetBus"},{"id":"40636","Extensions":{"LocationType":null,"PlatformCode":null,"ParentStation":null},"Name":"Miller Creek Rd & Queenstone Dr","Location":{"Longitude":"-122.549637","Latitude":"38.033192"},"Url":null,"StopType":"onstreetBus"},{"id":"40637","Extensions":{"LocationType":null,"PlatformCode":null,"ParentStation":null},"Name":"Miller Creek Rd & Queenstone Dr","Location":{"Longitude":"-122.549911","Latitude":"38.033401"},"Url":null,"StopType":"onstreetBus"},{"id":"40634","Extensions":{"LocationType":null,"PlatformCode":null,"ParentStation":null},"Name":"Miller Creek Rd & Quietwood Dr","Location":{"Longitude":"-122.551987","Latitude":"38.030968"},"Url":null,"StopType":"onstreetBus"},{"id":"40635","Extensions":{"LocationType":null,"PlatformCode":null,"ParentStation":null},"Name":"Miller Creek Rd & Quietwood Dr","Location":{"Longitude":"-122.552338","Latitude":"38.030899"},"Url":null,"StopType":"onstreetBus"},{"id":"40157","Extensions":{"LocationType":null,"PlatformCode":null,"ParentStation":null},"Name":"Mill Valley Depot-Miller Ave & Sunnyside Ave","Location":{"Longitude":"-122.547371","Latitude":"37.905514"},"Url":null,"StopType":"onstreetBus"},{"id":"40142","Extensions":{"LocationType":null,"PlatformCode":null,"ParentStation":null},"Name":"Mill Valley Depot-Sunnyside Ave & Miller Ave","Location":{"Longitude":"-122.547409","Latitude":"37.905663"},"Url":null,"StopType":"onstreetBus"},{"id":"41158","Extensions":{"LocationType":null,"PlatformCode":null,"ParentStation":null},"Name":"Mission Av & Mary St","Location":{"Longitude":"-122.516739","Latitude":"37.972668"},"Url":null,"StopType":"onstreetBus"},{"id":"41159","Extensions":{"LocationType":null,"PlatformCode":null,"ParentStation":null},"Name":"Mission Av & Mary St","Location":{"Longitude":"-122.516876","Latitude":"37.972534"},"Url":null,"StopType":"onstreetBus"},{"id":"41350","Extensions":{"LocationType":null,"PlatformCode":null,"ParentStation":null},"Name":"Montecillo Rd At Kaiser Hospital Lot A","Location":{"Longitude":"-122.553239","Latitude":"38.003909"},"Url":null,"StopType":"onstreetBus"},{"id":"40557","Extensions":{"LocationType":null,"PlatformCode":null,"ParentStation":null},"Name":"Montecillo Rd At Kaiser Hospital Lot C","Location":{"Longitude":"-122.554657","Latitude":"38.00552"},"Url":null,"StopType":"onstreetBus"},{"id":"40622","Extensions":{"LocationType":null,"PlatformCode":null,"ParentStation":null},"Name":"Mount Lassen Dr & Lucas Valley Rd","Location":{"Longitude":"-122.56884","Latitude":"38.025288"},"Url":null,"StopType":"onstreetBus"},{"id":"40617","Extensions":{"LocationType":null,"PlatformCode":null,"ParentStation":null},"Name":"Mount Lassen Dr & Lucas Valley Rd","Location":{"Longitude":"-122.568604","Latitude":"38.025394"},"Url":null,"StopType":"onstreetBus"},{"id":"42028","Extensions":{"LocationType":null,"PlatformCode":null,"ParentStation":null},"Name":"Mount Mckinley Rd & Idylberry Rd","Location":{"Longitude":"-122.5812","Latitude":"38.033043"},"Url":null,"StopType":"onstreetBus"},{"id":"40613","Extensions":{"LocationType":null,"PlatformCode":null,"ParentStation":null},"Name":"Mount Mckinley Rd & Idylberry Rd","Location":{"Longitude":"-122.581337","Latitude":"38.033123"},"Url":null,"StopType":"onstreetBus"},{"id":"40772","Extensions":{"LocationType":null,"PlatformCode":null,"ParentStation":null},"Name":"Nave Dr & Bolling Dr","Location":{"Longitude":"-122.530594","Latitude":"38.051685"},"Url":null,"StopType":"onstreetBus"},{"id":"40771","Extensions":{"LocationType":null,"PlatformCode":null,"ParentStation":null},"Name":"Nave Dr & Bolling Dr","Location":{"Longitude":"-122.530914","Latitude":"38.050663"},"Url":null,"StopType":"onstreetBus"},{"id":"40774","Extensions":{"LocationType":null,"PlatformCode":null,"ParentStation":null},"Name":"Nave Dr & Hamilton Pkwy","Location":{"Longitude":"-122.532921","Latitude":"38.061897"},"Url":null,"StopType":"onstreetBus"},{"id":"40768","Extensions":{"LocationType":null,"PlatformCode":null,"ParentStation":null},"Name":"Nave Dr & Roblar Dr","Location":{"Longitude":"-122.534424","Latitude":"38.064445"},"Url":null,"StopType":"onstreetBus"},{"id":"40767","Extensions":{"LocationType":null,"PlatformCode":null,"ParentStation":null},"Name":"Nave Dr & Roblar Dr","Location":{"Longitude":"-122.534775","Latitude":"38.064449"},"Url":null,"StopType":"onstreetBus"},{"id":"40558","Extensions":{"LocationType":null,"PlatformCode":null,"ParentStation":null},"Name":"Nova Albion Way & Arias St","Location":{"Longitude":"-122.550018","Latitude":"38.006721"},"Url":null,"StopType":"onstreetBus"},{"id":"40561","Extensions":{"LocationType":null,"PlatformCode":null,"ParentStation":null},"Name":"Nova Albion Way & Arias St","Location":{"Longitude":"-122.549606","Latitude":"38.007034"},"Url":null,"StopType":"onstreetBus"},{"id":"41039","Extensions":{"LocationType":null,"PlatformCode":null,"ParentStation":null},"Name":"Nova Albion Way & Montecillo Rd","Location":{"Longitude":"-122.552353","Latitude":"38.004139"},"Url":null,"StopType":"onstreetBus"},{"id":"40560","Extensions":{"LocationType":null,"PlatformCode":null,"ParentStation":null},"Name":"Nova Albion Way & Montecillo Rd","Location":{"Longitude":"-122.5522","Latitude":"38.004108"},"Url":null,"StopType":"onstreetBus"},{"id":"40675","Extensions":{"LocationType":null,"PlatformCode":null,"ParentStation":null},"Name":"Novato Blvd & Eucalyptus Av","Location":{"Longitude":"-122.60334","Latitude":"38.114239"},"Url":null,"StopType":"onstreetBus"},{"id":"40676","Extensions":{"LocationType":null,"PlatformCode":null,"ParentStation":null},"Name":"Novato Blvd & Eucalyptus Av","Location":{"Longitude":"-122.604073","Latitude":"38.114868"},"Url":null,"StopType":"onstreetBus"},{"id":"40684","Extensions":{"LocationType":null,"PlatformCode":null,"ParentStation":null},"Name":"Novato Blvd & Grant Av","Location":{"Longitude":"-122.58429","Latitude":"38.108662"},"Url":null,"StopType":"onstreetBus"},{"id":"40683","Extensions":{"LocationType":null,"PlatformCode":null,"ParentStation":null},"Name":"Novato Blvd & Grant Av","Location":{"Longitude":"-122.5839","Latitude":"38.108364"},"Url":null,"StopType":"onstreetBus"},{"id":"40681","Extensions":{"LocationType":null,"PlatformCode":null,"ParentStation":null},"Name":"Novato Blvd & Mcclay Rd","Location":{"Longitude":"-122.587616","Latitude":"38.110035"},"Url":null,"StopType":"onstreetBus"},{"id":"40682","Extensions":{"LocationType":null,"PlatformCode":null,"ParentStation":null},"Name":"Novato Blvd & Mcclay Rd","Location":{"Longitude":"-122.587547","Latitude":"38.110126"},"Url":null,"StopType":"onstreetBus"},{"id":"40677","Extensions":{"LocationType":null,"PlatformCode":null,"ParentStation":null},"Name":"Novato Blvd & Oliva Dr","Location":{"Longitude":"-122.59758","Latitude":"38.112118"},"Url":null,"StopType":"onstreetBus"},{"id":"40678","Extensions":{"LocationType":null,"PlatformCode":null,"ParentStation":null},"Name":"Novato Blvd & Oliva Dr","Location":{"Longitude":"-122.597328","Latitude":"38.112167"},"Url":null,"StopType":"onstreetBus"},{"id":"40687","Extensions":{"LocationType":null,"PlatformCode":null,"ParentStation":null},"Name":"Novato Blvd & Seventh St","Location":{"Longitude":"-122.580208","Latitude":"38.106853"},"Url":null,"StopType":"onstreetBus"},{"id":"40680","Extensions":{"LocationType":null,"PlatformCode":null,"ParentStation":null},"Name":"Novato Blvd & Wilson Ct","Location":{"Longitude":"-122.59153","Latitude":"38.111908"},"Url":null,"StopType":"onstreetBus"},{"id":"40679","Extensions":{"LocationType":null,"PlatformCode":null,"ParentStation":null},"Name":"Novato Blvd & Wilson Ct","Location":{"Longitude":"-122.593193","Latitude":"38.112076"},"Url":null,"StopType":"onstreetBus"},{"id":"42147","Extensions":{"LocationType":null,"PlatformCode":null,"ParentStation":null},"Name":"Novato San Marin SMART Station","Location":{"Longitude":"-122.566266","Latitude":"38.120578"},"Url":null,"StopType":"onstreetBus"},{"id":"40593","Extensions":{"LocationType":null,"PlatformCode":null,"ParentStation":null},"Name":"N San Pedro Rd & Crestview Dr","Location":{"Longitude":"-122.51947","Latitude":"38.009163"},"Url":null,"StopType":"onstreetBus"},{"id":"40603","Extensions":{"LocationType":null,"PlatformCode":null,"ParentStation":null},"Name":"N San Pedro Rd & Garden Av","Location":{"Longitude":"-122.527489","Latitude":"37.997311"},"Url":null,"StopType":"onstreetBus"},{"id":"40602","Extensions":{"LocationType":null,"PlatformCode":null,"ParentStation":null},"Name":"N San Pedro Rd & Jefferson Av","Location":{"Longitude":"-122.526932","Latitude":"37.997963"},"Url":null,"StopType":"onstreetBus"},{"id":"42131","Extensions":{"LocationType":null,"PlatformCode":null,"ParentStation":null},"Name":"N San Pedro Rd & La Pasada Way","Location":{"Longitude":"-122.517319","Latitude":"38.010868"},"Url":null,"StopType":"onstreetBus"},{"id":"40592","Extensions":{"LocationType":null,"PlatformCode":null,"ParentStation":null},"Name":"N San Pedro Rd & Mabry Way","Location":{"Longitude":"-122.519997","Latitude":"38.008553"},"Url":null,"StopType":"onstreetBus"},{"id":"40595","Extensions":{"LocationType":null,"PlatformCode":null,"ParentStation":null},"Name":"N San Pedro Rd & Meadow Dr","Location":{"Longitude":"-122.51886","Latitude":"38.006218"},"Url":null,"StopType":"onstreetBus"},{"id":"40594","Extensions":{"LocationType":null,"PlatformCode":null,"ParentStation":null},"Name":"N San Pedro Rd & Meadow Dr","Location":{"Longitude":"-122.519203","Latitude":"38.005878"},"Url":null,"StopType":"onstreetBus"},{"id":"40598","Extensions":{"LocationType":null,"PlatformCode":null,"ParentStation":null},"Name":"N San Pedro Rd & Meriam Dr","Location":{"Longitude":"-122.522476","Latitude":"38.001831"},"Url":null,"StopType":"onstreetBus"},{"id":"40579","Extensions":{"LocationType":null,"PlatformCode":null,"ParentStation":null},"Name":"N San Pedro Rd & Merrydale Rd","Location":{"Longitude":"-122.534599","Latitude":"37.993404"},"Url":null,"StopType":"onstreetBus"},{"id":"40578","Extensions":{"LocationType":null,"PlatformCode":null,"ParentStation":null},"Name":"N San Pedro Rd & Merrydale Rd","Location":{"Longitude":"-122.533798","Latitude":"37.993748"},"Url":null,"StopType":"onstreetBus"},{"id":"40600","Extensions":{"LocationType":null,"PlatformCode":null,"ParentStation":null},"Name":"N San Pedro Rd & Roosevelt Av","Location":{"Longitude":"-122.524368","Latitude":"38.000038"},"Url":null,"StopType":"onstreetBus"},{"id":"40601","Extensions":{"LocationType":null,"PlatformCode":null,"ParentStation":null},"Name":"N San Pedro Rd & Roosevelt Av","Location":{"Longitude":"-122.524689","Latitude":"37.999584"},"Url":null,"StopType":"onstreetBus"},{"id":"40596","Extensions":{"LocationType":null,"PlatformCode":null,"ParentStation":null},"Name":"N San Pedro Rd & Schmidt Ln","Location":{"Longitude":"-122.520599","Latitude":"38.004326"},"Url":null,"StopType":"onstreetBus"},{"id":"40597","Extensions":{"LocationType":null,"PlatformCode":null,"ParentStation":null},"Name":"N San Pedro Rd & Schmidt Ln","Location":{"Longitude":"-122.520065","Latitude":"38.004623"},"Url":null,"StopType":"onstreetBus"},{"id":"40599","Extensions":{"LocationType":null,"PlatformCode":null,"ParentStation":null},"Name":"N San Pedro Rd & Woodoaks Dr","Location":{"Longitude":"-122.521965","Latitude":"38.002151"},"Url":null,"StopType":"onstreetBus"},{"id":"41026","Extensions":{"LocationType":null,"PlatformCode":null,"ParentStation":null},"Name":"Olive Av & Kenwood Ct","Location":{"Longitude":"-122.563393","Latitude":"38.110092"},"Url":null,"StopType":"onstreetBus"},{"id":"41032","Extensions":{"LocationType":null,"PlatformCode":null,"ParentStation":null},"Name":"Olive Av & Lea Dr","Location":{"Longitude":"-122.549957","Latitude":"38.105736"},"Url":null,"StopType":"onstreetBus"},{"id":"41028","Extensions":{"LocationType":null,"PlatformCode":null,"ParentStation":null},"Name":"Olive Av & Westwood Dr","Location":{"Longitude":"-122.559341","Latitude":"38.109112"},"Url":null,"StopType":"onstreetBus"},{"id":"40741","Extensions":{"LocationType":null,"PlatformCode":null,"ParentStation":null},"Name":"Pacheco Plaza","Location":{"Longitude":"-122.542763","Latitude":"38.066223"},"Url":null,"StopType":"onstreetBus"},{"id":"40796","Extensions":{"LocationType":null,"PlatformCode":null,"ParentStation":null},"Name":"Panoramic Hwy & Bayview Dr","Location":{"Longitude":"-122.560455","Latitude":"37.896919"},"Url":null,"StopType":"onstreetBus"},{"id":"40795","Extensions":{"LocationType":null,"PlatformCode":null,"ParentStation":null},"Name":"Panoramic Hwy & Bayview Dr","Location":{"Longitude":"-122.560333","Latitude":"37.896763"},"Url":null,"StopType":"onstreetBus"},{"id":"40790","Extensions":{"LocationType":null,"PlatformCode":null,"ParentStation":null},"Name":"Panoramic Hwy & Edgewood Av","Location":{"Longitude":"-122.576996","Latitude":"37.910583"},"Url":null,"StopType":"onstreetBus"},{"id":"40789","Extensions":{"LocationType":null,"PlatformCode":null,"ParentStation":null},"Name":"Panoramic Hwy & Edgewood Av","Location":{"Longitude":"-122.57708","Latitude":"37.910057"},"Url":null,"StopType":"onstreetBus"},{"id":"40797","Extensions":{"LocationType":null,"PlatformCode":null,"ParentStation":null},"Name":"Panoramic Hwy & Muir Woods Rd","Location":{"Longitude":"-122.556999","Latitude":"37.89307"},"Url":null,"StopType":"onstreetBus"},{"id":"40785","Extensions":{"LocationType":null,"PlatformCode":null,"ParentStation":null},"Name":"Panoramic Hwy & Pan Toll Ranger Station","Location":{"Longitude":"-122.603859","Latitude":"37.904465"},"Url":null,"StopType":"onstreetBus"},{"id":"40786","Extensions":{"LocationType":null,"PlatformCode":null,"ParentStation":null},"Name":"Panoramic Hwy & Pan Toll Ranger Station","Location":{"Longitude":"-122.603996","Latitude":"37.904499"},"Url":null,"StopType":"onstreetBus"},{"id":"40794","Extensions":{"LocationType":null,"PlatformCode":null,"ParentStation":null},"Name":"Panoramic Hwy & Ridge Av","Location":{"Longitude":"-122.567284","Latitude":"37.901028"},"Url":null,"StopType":"onstreetBus"},{"id":"40793","Extensions":{"LocationType":null,"PlatformCode":null,"ParentStation":null},"Name":"Panoramic Hwy & Ridge Av","Location":{"Longitude":"-122.567703","Latitude":"37.901028"},"Url":null,"StopType":"onstreetBus"},{"id":"40798","Extensions":{"LocationType":null,"PlatformCode":null,"ParentStation":null},"Name":"Panoramic Hwy & Sequoia Valley Rd","Location":{"Longitude":"-122.556999","Latitude":"37.8936"},"Url":null,"StopType":"onstreetBus"},{"id":"40285","Extensions":{"LocationType":null,"PlatformCode":null,"ParentStation":null},"Name":"Paradise Dr & El Camino Dr","Location":{"Longitude":"-122.505089","Latitude":"37.919384"},"Url":null,"StopType":"onstreetBus"},{"id":"40290","Extensions":{"LocationType":null,"PlatformCode":null,"ParentStation":null},"Name":"Paradise Dr & Golden Hinde Passage","Location":{"Longitude":"-122.498085","Latitude":"37.920532"},"Url":null,"StopType":"onstreetBus"},{"id":"40289","Extensions":{"LocationType":null,"PlatformCode":null,"ParentStation":null},"Name":"Paradise Dr & Golden Hinde Passage","Location":{"Longitude":"-122.497993","Latitude":"37.920429"},"Url":null,"StopType":"onstreetBus"},{"id":"40284","Extensions":{"LocationType":null,"PlatformCode":null,"ParentStation":null},"Name":"Paradise Dr & Harbor Dr","Location":{"Longitude":"-122.508881","Latitude":"37.920216"},"Url":null,"StopType":"onstreetBus"},{"id":"40283","Extensions":{"LocationType":null,"PlatformCode":null,"ParentStation":null},"Name":"Paradise Dr & Madera Del Presidio Av","Location":{"Longitude":"-122.508621","Latitude":"37.919998"},"Url":null,"StopType":"onstreetBus"},{"id":"40287","Extensions":{"LocationType":null,"PlatformCode":null,"ParentStation":null},"Name":"Paradise Dr & Prince Royal Dr","Location":{"Longitude":"-122.502518","Latitude":"37.919159"},"Url":null,"StopType":"onstreetBus"},{"id":"40288","Extensions":{"LocationType":null,"PlatformCode":null,"ParentStation":null},"Name":"Paradise Dr & Prince Royal Dr","Location":{"Longitude":"-122.502953","Latitude":"37.919216"},"Url":null,"StopType":"onstreetBus"},{"id":"41189","Extensions":{"LocationType":null,"PlatformCode":null,"ParentStation":null},"Name":"Paradise Dr & Ranch Rd","Location":{"Longitude":"-122.483917","Latitude":"37.918461"},"Url":null,"StopType":"onstreetBus"},{"id":"41190","Extensions":{"LocationType":null,"PlatformCode":null,"ParentStation":null},"Name":"Paradise Dr & Ranch Rd","Location":{"Longitude":"-122.483841","Latitude":"37.918549"},"Url":null,"StopType":"onstreetBus"},{"id":"40293","Extensions":{"LocationType":null,"PlatformCode":null,"ParentStation":null},"Name":"Paradise Dr & Robin Dr","Location":{"Longitude":"-122.489059","Latitude":"37.919933"},"Url":null,"StopType":"onstreetBus"},{"id":"40294","Extensions":{"LocationType":null,"PlatformCode":null,"ParentStation":null},"Name":"Paradise Dr & Robin Dr","Location":{"Longitude":"-122.489052","Latitude":"37.920071"},"Url":null,"StopType":"onstreetBus"},{"id":"40286","Extensions":{"LocationType":null,"PlatformCode":null,"ParentStation":null},"Name":"Paradise Dr & Seawolf Passage","Location":{"Longitude":"-122.505249","Latitude":"37.919453"},"Url":null,"StopType":"onstreetBus"},{"id":"40292","Extensions":{"LocationType":null,"PlatformCode":null,"ParentStation":null},"Name":"Paradise Dr & Uplands Circle","Location":{"Longitude":"-122.490929","Latitude":"37.919998"},"Url":null,"StopType":"onstreetBus"},{"id":"40291","Extensions":{"LocationType":null,"PlatformCode":null,"ParentStation":null},"Name":"Paradise Dr & Uplands Circle","Location":{"Longitude":"-122.490891","Latitude":"37.919872"},"Url":null,"StopType":"onstreetBus"},{"id":"42010","Extensions":{"LocationType":null,"PlatformCode":null,"ParentStation":null},"Name":"Paradise Dr & Us 101 Overpass","Location":{"Longitude":"-122.514053","Latitude":"37.926266"},"Url":null,"StopType":"onstreetBus"},{"id":"40820","Extensions":{"LocationType":null,"PlatformCode":null,"ParentStation":null},"Name":"Park St & Central Av","Location":{"Longitude":"-122.643715","Latitude":"38.012112"},"Url":null,"StopType":"onstreetBus"},{"id":"40807","Extensions":{"LocationType":null,"PlatformCode":null,"ParentStation":null},"Name":"Pt Reyes Downtown-Shoreline Hwy & 3rd St","Location":{"Longitude":"-122.805611","Latitude":"38.067871"},"Url":null,"StopType":"onstreetBus"},{"id":"40355","Extensions":{"LocationType":null,"PlatformCode":null,"ParentStation":null},"Name":"Pt San Pedro Rd & Knight Dr","Location":{"Longitude":"-122.474274","Latitude":"37.98114"},"Url":null,"StopType":"onstreetBus"},{"id":"40361","Extensions":{"LocationType":null,"PlatformCode":null,"ParentStation":null},"Name":"Pt San Pedro Rd & Lochinvar Rd","Location":{"Longitude":"-122.484825","Latitude":"37.974369"},"Url":null,"StopType":"onstreetBus"},{"id":"40362","Extensions":{"LocationType":null,"PlatformCode":null,"ParentStation":null},"Name":"Pt San Pedro Rd & Loch Lomond Dr","Location":{"Longitude":"-122.484116","Latitude":"37.974483"},"Url":null,"StopType":"onstreetBus"},{"id":"40368","Extensions":{"LocationType":null,"PlatformCode":null,"ParentStation":null},"Name":"Pt San Pedro Rd & Main Dr","Location":{"Longitude":"-122.4751809","Latitude":"37.97918702"},"Url":null,"StopType":"onstreetBus"},{"id":"40490","Extensions":{"LocationType":null,"PlatformCode":null,"ParentStation":null},"Name":"Red Hill Ave & Sequoia Dr","Location":{"Longitude":"-122.554642","Latitude":"37.976635"},"Url":null,"StopType":"onstreetBus"},{"id":"40489","Extensions":{"LocationType":null,"PlatformCode":null,"ParentStation":null},"Name":"Red Hill Ave & Sequoia Dr","Location":{"Longitude":"-122.554184","Latitude":"37.976387"},"Url":null,"StopType":"onstreetBus"},{"id":"40275","Extensions":{"LocationType":null,"PlatformCode":null,"ParentStation":null},"Name":"Redwood Av & Montecito Dr","Location":{"Longitude":"-122.52951","Latitude":"37.926357"},"Url":null,"StopType":"onstreetBus"},{"id":"40276","Extensions":{"LocationType":null,"PlatformCode":null,"ParentStation":null},"Name":"Redwood Av & Montecito Dr","Location":{"Longitude":"-122.529625","Latitude":"37.926449"},"Url":null,"StopType":"onstreetBus"},{"id":"41046","Extensions":{"LocationType":null,"PlatformCode":null,"ParentStation":null},"Name":"Redwood Blvd & Escallonia Dr","Location":{"Longitude":"-122.567444","Latitude":"38.115864"},"Url":null,"StopType":"onstreetBus"},{"id":"40696","Extensions":{"LocationType":null,"PlatformCode":null,"ParentStation":null},"Name":"Redwood Blvd & Grant Ave","Location":{"Longitude":"-122.570808","Latitude":"38.106289"},"Url":null,"StopType":"onstreetBus"},{"id":"40697","Extensions":{"LocationType":null,"PlatformCode":null,"ParentStation":null},"Name":"Redwood Blvd & Grant Ave","Location":{"Longitude":"-122.570549","Latitude":"38.106445"},"Url":null,"StopType":"onstreetBus"},{"id":"40694","Extensions":{"LocationType":null,"PlatformCode":null,"ParentStation":null},"Name":"Redwood Blvd & Olive Ave","Location":{"Longitude":"-122.569046","Latitude":"38.111172"},"Url":null,"StopType":"onstreetBus"},{"id":"40695","Extensions":{"LocationType":null,"PlatformCode":null,"ParentStation":null},"Name":"Redwood Blvd & Olive Ave","Location":{"Longitude":"-122.568558","Latitude":"38.111397"},"Url":null,"StopType":"onstreetBus"},{"id":"41047","Extensions":{"LocationType":null,"PlatformCode":null,"ParentStation":null},"Name":"Redwood Blvd & Rush Creek Place","Location":{"Longitude":"-122.567062","Latitude":"38.115952"},"Url":null,"StopType":"onstreetBus"},{"id":"42146","Extensions":{"LocationType":null,"PlatformCode":null,"ParentStation":null},"Name":"Redwood High School","Location":{"Longitude":"-122.523384","Latitude":"37.937679"},"Url":null,"StopType":"onstreetBus"},{"id":"40184","Extensions":{"LocationType":null,"PlatformCode":null,"ParentStation":null},"Name":"Redwood Hwy Frontage Rd & De Silva Island Dr","Location":{"Longitude":"-122.516205","Latitude":"37.88913"},"Url":null,"StopType":"onstreetBus"},{"id":"40186","Extensions":{"LocationType":null,"PlatformCode":null,"ParentStation":null},"Name":"Redwood Hwy Frontage Rd & Hwy 101 SB Ramps","Location":{"Longitude":"-122.517433","Latitude":"37.889305"},"Url":null,"StopType":"onstreetBus"},{"id":"40158","Extensions":{"LocationType":null,"PlatformCode":null,"ParentStation":null},"Name":"Reed Blvd & Belvedere Dr","Location":{"Longitude":"-122.513275","Latitude":"37.898609"},"Url":null,"StopType":"onstreetBus"},{"id":"40182","Extensions":{"LocationType":null,"PlatformCode":null,"ParentStation":null},"Name":"Reed Blvd & Redwood Hwy","Location":{"Longitude":"-122.514938","Latitude":"37.900894"},"Url":null,"StopType":"onstreetBus"},{"id":"40341","Extensions":{"LocationType":null,"PlatformCode":null,"ParentStation":null},"Name":"Ross Sir Francis Drake Blvd & Lagunitas Rd","Location":{"Longitude":"-122.555847","Latitude":"37.962559"},"Url":null,"StopType":"onstreetBus"},{"id":"40342","Extensions":{"LocationType":null,"PlatformCode":null,"ParentStation":null},"Name":"Ross Sir Francis Drake Blvd & Lagunitas Rd","Location":{"Longitude":"-122.555855","Latitude":"37.962734"},"Url":null,"StopType":"onstreetBus"},{"id":"41306","Extensions":{"LocationType":null,"PlatformCode":null,"ParentStation":null},"Name":"Rowland Blvd At Vintage Oaks Entrance","Location":{"Longitude":"-122.551918","Latitude":"38.089954"},"Url":null,"StopType":"onstreetBus"},{"id":"40777","Extensions":{"LocationType":null,"PlatformCode":null,"ParentStation":null},"Name":"Rowland Blvd & Redwood Blvd","Location":{"Longitude":"-122.56105","Latitude":"38.091152"},"Url":null,"StopType":"onstreetBus"},{"id":"41043","Extensions":{"LocationType":null,"PlatformCode":null,"ParentStation":null},"Name":"Rowland Blvd & Redwood Blvd","Location":{"Longitude":"-122.561935","Latitude":"38.090256"},"Url":null,"StopType":"onstreetBus"},{"id":"41311","Extensions":{"LocationType":null,"PlatformCode":null,"ParentStation":null},"Name":"Rowland Blvd  & Rowland Way","Location":{"Longitude":"-122.556961","Latitude":"38.093521"},"Url":null,"StopType":"onstreetBus"},{"id":"41310","Extensions":{"LocationType":null,"PlatformCode":null,"ParentStation":null},"Name":"Rowland Blvd & Rowland Way","Location":{"Longitude":"-122.557098","Latitude":"38.093723"},"Url":null,"StopType":"onstreetBus"},{"id":"40778","Extensions":{"LocationType":null,"PlatformCode":null,"ParentStation":null},"Name":"Rowland Blvd & S Novato Blvd","Location":{"Longitude":"-122.5645624","Latitude":"38.08822952"},"Url":null,"StopType":"onstreetBus"},{"id":"40484","Extensions":{"LocationType":null,"PlatformCode":null,"ParentStation":null},"Name":"San Anselmo Hub","Location":{"Longitude":"-122.563019","Latitude":"37.976604"},"Url":null,"StopType":"onstreetBus"},{"id":"40668","Extensions":{"LocationType":null,"PlatformCode":null,"ParentStation":null},"Name":"San Carlos Way & Clemente Ct","Location":{"Longitude":"-122.596863","Latitude":"38.118427"},"Url":null,"StopType":"onstreetBus"},{"id":"40666","Extensions":{"LocationType":null,"PlatformCode":null,"ParentStation":null},"Name":"San Carlos Way & Corona Ct","Location":{"Longitude":"-122.594482","Latitude":"38.118732"},"Url":null,"StopType":"onstreetBus"},{"id":"40664","Extensions":{"LocationType":null,"PlatformCode":null,"ParentStation":null},"Name":"San Carlos Way & San Luis Ct","Location":{"Longitude":"-122.591232","Latitude":"38.119953"},"Url":null,"StopType":"onstreetBus"},{"id":"41002","Extensions":{"LocationType":null,"PlatformCode":null,"ParentStation":null},"Name":"San Carlos Way & San Luis Way","Location":{"Longitude":"-122.592934","Latitude":"38.119324"},"Url":null,"StopType":"onstreetBus"},{"id":"40662","Extensions":{"LocationType":null,"PlatformCode":null,"ParentStation":null},"Name":"San Carlos Way & San Marin Dr","Location":{"Longitude":"-122.591576","Latitude":"38.12352"},"Url":null,"StopType":"onstreetBus"},{"id":"42008","Extensions":{"LocationType":null,"PlatformCode":null,"ParentStation":null},"Name":"San Clemente Parking  Lot","Location":{"Longitude":"-122.499901","Latitude":"37.919956"},"Url":null,"StopType":"onstreetBus"},{"id":"42000","Extensions":{"LocationType":null,"PlatformCode":null,"ParentStation":null},"Name":"San Geronimo Valley Dr & Creamery Rd","Location":{"Longitude":"-122.667946","Latitude":"38.0144"},"Url":null,"StopType":"onstreetBus"},{"id":"40816","Extensions":{"LocationType":null,"PlatformCode":null,"ParentStation":null},"Name":"San Geronimo Valley Dr & Creamery Rd","Location":{"Longitude":"-122.668182","Latitude":"38.014347"},"Url":null,"StopType":"onstreetBus"},{"id":"41048","Extensions":{"LocationType":null,"PlatformCode":null,"ParentStation":null},"Name":"San Marin Dr & East Campus Dr","Location":{"Longitude":"-122.569168","Latitude":"38.120674"},"Url":null,"StopType":"onstreetBus"},{"id":"40656","Extensions":{"LocationType":null,"PlatformCode":null,"ParentStation":null},"Name":"San Marin Dr & Redwood Blvd","Location":{"Longitude":"-122.567421","Latitude":"38.118454"},"Url":null,"StopType":"onstreetBus"},{"id":"40655","Extensions":{"LocationType":null,"PlatformCode":null,"ParentStation":null},"Name":"San Marin Dr & Redwood Blvd","Location":{"Longitude":"-122.56749","Latitude":"38.118885"},"Url":null,"StopType":"onstreetBus"},{"id":"40669","Extensions":{"LocationType":null,"PlatformCode":null,"ParentStation":null},"Name":"San Marin Dr & San Andreas Dr","Location":{"Longitude":"-122.602119","Latitude":"38.122116"},"Url":null,"StopType":"onstreetBus"},{"id":"40670","Extensions":{"LocationType":null,"PlatformCode":null,"ParentStation":null},"Name":"San Marin Dr & San Andreas Dr","Location":{"Longitude":"-122.602013","Latitude":"38.12191"},"Url":null,"StopType":"onstreetBus"},{"id":"40672","Extensions":{"LocationType":null,"PlatformCode":null,"ParentStation":null},"Name":"San Marin Dr & San Ramon Way","Location":{"Longitude":"-122.60405","Latitude":"38.121635"},"Url":null,"StopType":"onstreetBus"},{"id":"40671","Extensions":{"LocationType":null,"PlatformCode":null,"ParentStation":null},"Name":"San Marin Dr & San Ramon Way","Location":{"Longitude":"-122.604507","Latitude":"38.121792"},"Url":null,"StopType":"onstreetBus"},{"id":"41049","Extensions":{"LocationType":null,"PlatformCode":null,"ParentStation":null},"Name":"San Marin Dr & Santolina Dr","Location":{"Longitude":"-122.569687","Latitude":"38.120571"},"Url":null,"StopType":"onstreetBus"},{"id":"40660","Extensions":{"LocationType":null,"PlatformCode":null,"ParentStation":null},"Name":"San Marin Dr & Sereno Way","Location":{"Longitude":"-122.587769","Latitude":"38.124256"},"Url":null,"StopType":"onstreetBus"},{"id":"40659","Extensions":{"LocationType":null,"PlatformCode":null,"ParentStation":null},"Name":"San Marin Dr & Sereno Way","Location":{"Longitude":"-122.587715","Latitude":"38.124477"},"Url":null,"StopType":"onstreetBus"},{"id":"40658","Extensions":{"LocationType":null,"PlatformCode":null,"ParentStation":null},"Name":"San Marin Dr & Simmons Ln","Location":{"Longitude":"-122.58448","Latitude":"38.121441"},"Url":null,"StopType":"onstreetBus"},{"id":"40657","Extensions":{"LocationType":null,"PlatformCode":null,"ParentStation":null},"Name":"San Marin Dr & Simmons Ln","Location":{"Longitude":"-122.584953","Latitude":"38.121693"},"Url":null,"StopType":"onstreetBus"},{"id":"41075","Extensions":{"LocationType":null,"PlatformCode":null,"ParentStation":null},"Name":"San Marin Dr & Somerset Dr","Location":{"Longitude":"-122.578644","Latitude":"38.12075"},"Url":null,"StopType":"onstreetBus"},{"id":"41074","Extensions":{"LocationType":null,"PlatformCode":null,"ParentStation":null},"Name":"San Marin Dr & West Campus Dr","Location":{"Longitude":"-122.575356","Latitude":"38.121307"},"Url":null,"StopType":"onstreetBus"},{"id":"40673","Extensions":{"LocationType":null,"PlatformCode":null,"ParentStation":null},"Name":"San Marin High School","Location":{"Longitude":"-122.609337","Latitude":"38.118832"},"Url":null,"StopType":"onstreetBus"},{"id":"40674","Extensions":{"LocationType":null,"PlatformCode":null,"ParentStation":null},"Name":"San Marin High School","Location":{"Longitude":"-122.609055","Latitude":"38.118809"},"Url":null,"StopType":"onstreetBus"},{"id":"44005","Extensions":{"LocationType":null,"PlatformCode":null,"ParentStation":null},"Name":"San Rafael Transit Center","Location":{"Longitude":"-122.5224165","Latitude":"37.97124918"},"Url":null,"StopType":"onstreetBus"},{"id":"44006","Extensions":{"LocationType":null,"PlatformCode":null,"ParentStation":null},"Name":"San Rafael Transit Center","Location":{"Longitude":"-122.522713","Latitude":"37.971188"},"Url":null,"StopType":"onstreetBus"},{"id":"44001","Extensions":{"LocationType":null,"PlatformCode":null,"ParentStation":null},"Name":"San Rafael Transit Center","Location":{"Longitude":"-122.52253","Latitude":"37.971031"},"Url":null,"StopType":"onstreetBus"},{"id":"44003","Extensions":{"LocationType":null,"PlatformCode":null,"ParentStation":null},"Name":"San Rafael Transit Center","Location":{"Longitude":"-122.522568","Latitude":"37.971352"},"Url":null,"StopType":"onstreetBus"},{"id":"44002","Extensions":{"LocationType":null,"PlatformCode":null,"ParentStation":null},"Name":"San Rafael Transit Center","Location":{"Longitude":"-122.522408","Latitude":"37.970898"},"Url":null,"StopType":"onstreetBus"},{"id":"41356","Extensions":{"LocationType":null,"PlatformCode":null,"ParentStation":null},"Name":"S Eliseo Dr At Hamilton Park","Location":{"Longitude":"-122.53566","Latitude":"37.943821"},"Url":null,"StopType":"onstreetBus"},{"id":"41354","Extensions":{"LocationType":null,"PlatformCode":null,"ParentStation":null},"Name":"S Eliseo Dr & Via Belardo","Location":{"Longitude":"-122.528717","Latitude":"37.945072"},